{"version": 1, "last_updated": "2021-05-26 18:15:26.485740+02:00", "last_scrap": [], "centres_disponibles": [{"departement": "04", "nom": "Vaccina Gnesta, Gnesta", "url": "https://www.vaccina.se/covidvaccin/sormland/tidsbokning/#/service", "location": {"longitude": 17.326507675212333, "latitude": 59.03994773439347, "city": "Gnesta", "cp": "64630"}, "metadata": {"address": "Dansutvägen 2, 646 30 Gnesta", "business_hours": null, "phone_number": "010-750 09 45"}, "prochain_rdv": "2021-06-16 08:40:00", "plateforme": "Vaccina", "type": "vaccination-center", "appointment_count": 247, "internal_id": 30004, "vaccine_type": null, "appointment_by_phone_only": false, "erreur": null, "last_scan_with_availabilities": null, "request_counts": null, "appointment_schedules": [], "gid": null}, {"departement": "04", "nom": "Vaccina Strängnäs, Strängnäs", "url": "https://www.vaccina.se/covidvaccin/sormland/tidsbokning/#/service", "location": {"longitude": 17.01994084720094, "latitude": 59.3791697143613, "city": "Strängnäs", "cp": "64533"}, "metadata": {"address": "Seminarievägen 10A, 645 33 Strängnäs", "business_hours": null, "phone_number": "010-750 09 45"}, "prochain_rdv": "2021-06-06 11:45:00", "plateforme": "Vaccina", "type": "vaccination-center", "appointment_count": 1850, "internal_id": 30003, "vaccine_type": null, "appointment_by_phone_only": false, "erreur": null, "last_scan_with_availabilities": null, "request_counts": null, "appointment_schedules": [], "gid": null}, {"departement": "04", "nom": "Vaccina Trosa, Trosa", "url": "https://www.vaccina.se/covidvaccin/sormland/tidsbokning/#/service", "location": {"longitude": 17.54861749910625, "latitude": 58.8965322283658, "city": "Trosa", "cp": "61930"}, "metadata": {"address": "Busstorget 5, 619 30 Trosa", "business_hours": null, "phone_number": "010-750 09 45"}, "prochain_rdv": "2021-06-13 09:30:00", "plateforme": "Vaccina", "type": "vaccination-center", "appointment_count": 1, "internal_id": 30006, "vaccine_type": null, "appointment_by_phone_only": false, "erreur": null, "last_scan_with_availabilities": null, "request_counts": null, "appointment_schedules": [], "gid": null}, {"departement": "04", "nom": "Vaccinkliniken Nyköping, Nyköping", "url": "https://bokning.mittvaccin.se/klinik/45", "location": {"longitude": 16.989176783886634, "latitude": 58.75034091018592, "city": "Nyköping", "cp": "61138"}, "metadata": {"address": "Norrköpingsvägen 13, 611 38 Nyköping", "business_hours": null, "phone_number": "0155-60 60 40"}, "prochain_rdv": "2021-06-02 19:33:00", "plateforme": "MittVaccin", "type": "vaccination-center", "appointment_count": 460, "internal_id": "45", "vaccine_type": null, "appointment_by_phone_only": false, "erreur": null, "last_scan_with_availabilities": null, "request_counts": null, "appointment_schedules": [], "gid": null}, {"departement": "04", "nom": "iDoc Katrineholm, Katrineholm", "url": "https://bokning.mittvaccin.se/klinik/2069", "location": {"longitude": 16.22944269545824, "latitude": 59.00063679643513, "city": "Katrineholm", "cp": "64149"}, "metadata": {"address": "Videvägen 7B, 641 49 Katrineholm", "business_hours": null, "phone_number": "011-473 53 70"}, "prochain_rdv": "2021-06-15 08:28:00", "plateforme": "MittVaccin", "type": "vaccination-center", "appointment_count": 1030, "internal_id": "2069", "vaccine_type": null, "appointment_by_phone_only": false, "erreur": null, "last_scan_with_availabilities": null, "request_counts": null, "appointment_schedules": [], "gid": null}], "centres_indisponibles": [{"departement": "04", "nom": "Distriktssköterskemottagningen och barnavårdscentralen Valla, Katrineholm", "url": "https://www.1177.se/hitta-vard/kontaktkort/Distriktsskoterskemottagningen-och-barnavardscentralen-Valla-Katrineholm-1/", "location": {"longitude": 16.380007560039292, "latitude": 59.01997790393926, "city": "Katrineholm", "cp": "00000"}, "metadata": {"address": "Lagerlundavägen 2C", "business_hours": null, "phone_number": "0150-48 85 32"}, "prochain_rdv": null, "plateforme": null, "type": "vaccination-center", "appointment_count": 0, "internal_id": null, "vaccine_type": null, "appointment_by_phone_only": true, "erreur": null, "last_scan_with_availabilities": null, "request_counts": null, "appointment_schedules": [], "gid": null}, {"departement": "04", "nom": "Doktor24 Oxelösund, Oxelösund", "url": "https://www.1177.se/hitta-vard/kontaktkort/Doktor24-Oxelosund-Oxelosund/", "location": {"longitude": 17.10294903592922, "latitude": 58.66989522441743, "city": "Oxelösund", "cp": "64330"}, "metadata": {"address": "Torggatan 9, 643 30 Oxelösund", "business_hours": null, "phone_number": "010-410 23 00"}, "prochain_rdv": null, "plateforme": null, "type": "vaccination-center", "appointment_count": 0, "internal_id": null, "vaccine_type": null, "appointment_by_phone_only": true, "erreur": null, "last_scan_with_availabilities": null, "request_counts": null, "appointment_schedules": [], "gid": null}, {"departement": "04", "nom": "Doktor24 Vingåker, Vingåker", "url": "https://www.1177.se/hitta-vard/kontaktkort/Doktor24-Vingaker-Vingaker/", "location": {"longitude": 15.87206466885389, "latitude": 59.045854918164146, "city": "Vingåker", "cp": "64330"}, "metadata": {"address": "Storgatan 27, 643 30 Vingåker", "business_hours": null, "phone_number": "010-410 23 00"}, "prochain_rdv": null, "plateforme": null, "type": "vaccination-center", "appointment_count": 0, "internal_id": null, "vaccine_type": null, "appointment_by_phone_only": true, "erreur": null, "last_scan_with_availabilities": null, "request_counts": null, "appointment_schedules": [], "gid": null}, {"departement": "04", "nom": "Vaccina Flen, Flen", "url": "https://www.vaccina.se/covidvaccin/sormland/tidsbokning/#/service", "location": {"longitude": 16.589337823953205, "latitude": 59.05905571299985, "city": "Flen", "cp": "64237"}, "metadata": {"address": "Götgatan 6, 642 37 Flen", "business_hours": null, "phone_number": "010-750 09 45"}, "prochain_rdv": null, "plateforme": "Vaccina", "type": "vaccination-center", "appointment_count": 0, "internal_id": 30005, "vaccine_type": null, "appointment_by_phone_only": false, "erreur": null, "last_scan_with_availabilities": null, "request_counts": null, "appointment_schedules": [], "gid": null}, {"departement": "04", "nom": "Vaccinationsmottagningen Campushallen Strängnäs, Strängnäs", "url": "https://www.1177.se/hitta-vard/kontaktkort/Vaccinationsmottagningen-Campushallen-Strangnas-Strangnas/", "location": {"longitude": 17.005272966044274, "latitude": 59.38581396302979, "city": "Strängnäs", "cp": "64535"}, "metadata": {"address": "Bataljonsgatan, Kaserntorget 5, 645 35 Strängnäs", "business_hours": null, "phone_number": "0155-24 50 00"}, "prochain_rdv": null, "plateforme": null, "type": "vaccination-center", "appointment_count": 0, "internal_id": null, "vaccine_type": null, "appointment_by_phone_only": true, "erreur": null, "last_scan_with_availabilities": null, "request_counts": null, "appointment_schedules": [], "gid": null}, {"departement": "04", "nom": "Vaccinationsmottagningen Parken Zoo Eskilstuna, Eskilstuna", "url": "https://www.1177.se/hitta-vard/kontaktkort/Vaccinationsmottagningen-Parken-Zoo-Eskilstuna-Eskilstuna/", "location": {"longitude": 16.483773813480298, "latitude": 59.372992336766906, "city": "Eskilstuna", "cp": "63222"}, "metadata": {"address": "Flackstavägen 13 B, 632 22 Eskilstuna", "business_hours": null, "phone_number": "0155-24 50 00"}, "prochain_rdv": null, "plateforme": null, "type": "vaccination-center", "appointment_count": 0, "internal_id": null, "vaccine_type": null, "appointment_by_phone_only": true, "erreur": null, "last_scan_with_availabilities": null, "request_counts": null, "appointment_schedules": [], "gid": null}, {"departement": "04", "nom": "Vaccinationsmottagningen Träffen Nyköping, Nyköping", "url": "https://www.1177.se/hitta-vard/kontaktkort/Vaccinationsmottagningen-Traffen-Nykoping-Nykoping/", "location": {"longitude": 17.022144278902406, "latitude": 58.761885569796114, "city": "Nyköping", "cp": "61137"}, "metadata": {"address": "Olof Palmes väg 1B, 611 37 Nyköping", "business_hours": null, "phone_number": "0155-24 50 00"}, "prochain_rdv": null, "plateforme": null, "type": "vaccination-center", "appointment_count": 0, "internal_id": null, "vaccine_type": null, "appointment_by_phone_only": true, "erreur": null, "last_scan_with_availabilities": null, "request_counts": null, "appointment_schedules": [], "gid": null}, {"departement": "04", "nom": "Vaccinationsmottagningen Västgötagatan 16 Katrineholm, Katrineholm", "url": "https://www.1177.se/hitta-vard/kontaktkort/Vaccinationsmottagningen-Vastgotagatan-16-Katrineholm-Katrineholm/", "location": {"longitude": 16.192256519192338, "latitude": 58.987834866198654, "city": "Katrineholm", "cp": "64136"}, "metadata": {"address": "Västgötagatan 16, 641 36 Katrineholm", "business_hours": null, "phone_number": "0155-24 50 00"}, "prochain_rdv": null, "plateforme": null, "type": "vaccination-center", "appointment_count": 0, "internal_id": null, "vaccine_type": null, "appointment_by_phone_only": true, "erreur": null, "last_scan_with_availabilities": null, "request_counts": null, "appointment_schedules": [], "gid": null}, {"departement": "04", "nom": "Vårdcentralen Achima Care Eskilstuna, Eskilstuna", "url": "https://www.1177.se/hitta-vard/kontaktkort/Vardcentralen-Achima-Care-Eskilstuna-Eskilstuna/", "location": {"longitude": 16.454096600064467, "latitude": 59.37651833243859, "city": "Eskilstuna", "cp": "00000"}, "metadata": {"address": "Ekebyvägen 1", "business_hours": null, "phone_number": "016-10 49 10"}, "prochain_rdv": null, "plateforme": null, "type": "vaccination-center", "appointment_count": 0, "internal_id": null, "vaccine_type": null, "appointment_by_phone_only": true, "erreur": null, "last_scan_with_availabilities": null, "request_counts": null, "appointment_schedules": [], "gid": null}, {"departement": "04", "nom": "Vårdcentralen Achima Care Fristaden Eskilstuna, Eskilstuna", "url": "https://www.1177.se/hitta-vard/kontaktkort/Vardcentralen-Achima-Care-Fristaden-Eskilstuna-Eskilstuna/", "location": {"longitude": 16.517717002563927, "latitude": 59.37021735627989, "city": "Eskilstuna", "cp": "00000"}, "metadata": {"address": "Rademachergatan 1", "business_hours": null, "phone_number": "016-585 80 60"}, "prochain_rdv": null, "plateforme": null, "type": "vaccination-center", "appointment_count": 0, "internal_id": null, "vaccine_type": null, "appointment_by_phone_only": true, "erreur": null, "last_scan_with_availabilities": null, "request_counts": null, "appointment_schedules": [], "gid": null}, {"departement": "04", "nom": "Vårdcentralen Bagaregatan Nyköping, Nyköping", "url": "https://www.1177.se/hitta-vard/kontaktkort/Vardcentralen-Bagaregatan-Nykoping-Nykoping/", "location": {"longitude": 17.005962192011815, "latitude": 58.74865054185708, "city": "Nyköping", "cp": "00000"}, "metadata": {"address": "Bagaregatan 3 D", "business_hours": null, "phone_number": "0155-24 56 70"}, "prochain_rdv": null, "plateforme": null, "type": "vaccination-center", "appointment_count": 0, "internal_id": null, "vaccine_type": null, "appointment_by_phone_only": true, "erreur": null, "last_scan_with_availabilities": null, "request_counts": null, "appointment_schedules": [], "gid": null}, {"departement": "04", "nom": "Vårdcentralen Centrum Flen, Flen", "url": "https://www.1177.se/hitta-vard/kontaktkort/Vardcentralen-Centrum-Flen-Flen/", "location": {"longitude": 16.590581067778874, "latitude": 59.05930854245222, "city": "Flen", "cp": "00000"}, "metadata": {"address": "N Kungsgatan 9, 1 tr", "business_hours": null, "phone_number": "0157-246 00"}, "prochain_rdv": null, "plateforme": null, "type": "vaccination-center", "appointment_count": 0, "internal_id": null, "vaccine_type": null, "appointment_by_phone_only": true, "erreur": null, "last_scan_with_availabilities": null, "request_counts": null, "appointment_schedules": [], "gid": null}, {"departement": "04", "nom": "Vårdcentralen City Eskilstuna, Eskilstuna", "url": "https://www.1177.se/hitta-vard/kontaktkort/Vardcentralen-City-Eskilstuna-Eskilstuna/", "location": {"longitude": 16.507229881846737, "latitude": 59.37171041459446, "city": "Eskilstuna", "cp": "00000"}, "metadata": {"address": "Kungsgatan 39", "business_hours": null, "phone_number": "016-10 40 01"}, "prochain_rdv": null, "plateforme": null, "type": "vaccination-center", "appointment_count": 0, "internal_id": null, "vaccine_type": null, "appointment_by_phone_only": true, "erreur": null, "last_scan_with_availabilities": null, "request_counts": null, "appointment_schedules": [], "gid": null}, {"departement": "04", "nom": "Vårdcentralen Doktor.se Vingåker, Vingåker", "url": "https://www.1177.se/hitta-vard/kontaktkort/Vardcentralen-Doktorse-Vingaker-Vingaker/", "location": {"longitude": 15.870877794154792, "latitude": 59.044688512324086, "city": "Vingåker", "cp": "00000"}, "metadata": {"address": "Östra Torggatan 3", "business_hours": null, "phone_number": "0151-52 54 00"}, "prochain_rdv": null, "plateforme": null, "type": "vaccination-center", "appointment_count": 0, "internal_id": null, "vaccine_type": null, "appointment_by_phone_only": true, "erreur": null, "last_scan_with_availabilities": null, "request_counts": null, "appointment_schedules": [], "gid": null}, {"departement": "04", "nom": "Vårdcentralen Ekensberg Nyköping, Nyköping", "url": "https://www.1177.se/hitta-vard/kontaktkort/Vardcentralen-Ekensberg-Nykoping-Nykoping/", "location": {"longitude": 17.034147044862276, "latitude": 58.76068547639825, "city": "Nyköping", "cp": "00000"}, "metadata": {"address": "Hälsovägen 1", "business_hours": null, "phone_number": "0155-24 55 40"}, "prochain_rdv": null, "plateforme": null, "type": "vaccination-center", "appointment_count": 0, "internal_id": null, "vaccine_type": null, "appointment_by_phone_only": true, "erreur": null, "last_scan_with_availabilities": null, "request_counts": null, "appointment_schedules": [], "gid": null}, {"departement": "04", "nom": "Vårdcentralen Flen, Flen", "url": "https://www.1177.se/hitta-vard/kontaktkort/Vardcentralen-Flen-Flen/", "location": {"longitude": 16.58592206368639, "latitude": 59.0675329149346, "city": "Flen", "cp": "00000"}, "metadata": {"address": "Orrögatan 10", "business_hours": null, "phone_number": "0157-185 55"}, "prochain_rdv": null, "plateforme": null, "type": "vaccination-center", "appointment_count": 0, "internal_id": null, "vaccine_type": null, "appointment_by_phone_only": true, "erreur": null, "last_scan_with_availabilities": null, "request_counts": null, "appointment_schedules": [], "gid": null}, {"departement": "04", "nom": "Vårdcentralen Fröslunda Eskilstuna, Eskilstuna", "url": "https://www.1177.se/hitta-vard/kontaktkort/Vardcentralen-Froslunda-Eskilstuna-Eskilstuna/", "location": {"longitude": 16.495983561802703, "latitude": 59.3523086268136, "city": "Eskilstuna", "cp": "00000"}, "metadata": {"address": "Lindängsvägen 2", "business_hours": null, "phone_number": "016-10 42 00"}, "prochain_rdv": null, "plateforme": null, "type": "vaccination-center", "appointment_count": 0, "internal_id": null, "vaccine_type": null, "appointment_by_phone_only": true, "erreur": null, "last_scan_with_availabilities": null, "request_counts": null, "appointment_schedules": [], "gid": null}, {"departement": "04", "nom": "Vårdcentralen Gallerian Eskilstuna, Eskilstuna", "url": "https://www.1177.se/hitta-vard/kontaktkort/Vardcentralen-Gallerian-Eskilstuna-Eskilstuna/", "location": {"longitude": 16.516057122703216, "latitude": 59.36990323220157, "city": "Eskilstuna", "cp": "00000"}, "metadata": {"address": "Kungsgatan 6, Eskilstuna", "business_hours": null, "phone_number": "016-585 89 00"}, "prochain_rdv": null, "plateforme": null, "type": "vaccination-center", "appointment_count": 0, "internal_id": null, "vaccine_type": null, "appointment_by_phone_only": true, "erreur": null, "last_scan_with_availabilities": null, "request_counts": null, "appointment_schedules": [], "gid": null}, {"departement": "04", "nom": "Vårdcentralen Gnesta, Gnesta", "url": "https://www.1177.se/hitta-vard/kontaktkort/Vardcentralen-Gnesta-Gnesta/", "location": {"longitude": 17.30174782915912, "latitude": 59.04547913906771, "city": "Gnesta", "cp": "00000"}, "metadata": {"address": "Nygatan 29", "business_hours": null, "phone_number": "0158-524 10"}, "prochain_rdv": null, "plateforme": null, "type": "vaccination-center", "appointment_count": 0, "internal_id": null, "vaccine_type": null, "appointment_by_phone_only": true, "erreur": null, "last_scan_with_availabilities": null, "request_counts": null, "appointment_schedules": [], "gid": null}, {"departement": "04", "nom": "Vårdcentralen Malmköping, Flen", "url": "https://www.1177.se/hitta-vard/kontaktkort/Vardcentralen-Malmkoping-Flen/", "location": {"longitude": 16.73442748622717, "latitude": 59.134873406955556, "city": "Flen", "cp": "00000"}, "metadata": {"address": "Siegrothsvägen 14, Malmköping", "business_hours": null, "phone_number": "0157-184 44"}, "prochain_rdv": null, "plateforme": "1177", "type": "vaccination-center", "appointment_count": 0, "internal_id": null, "vaccine_type": null, "appointment_by_phone_only": true, "erreur": null, "last_scan_with_availabilities": null, "request_counts": null, "appointment_schedules": [], "gid": null}, {"departement": "04", "nom": "Vårdcentralen Mariefred, Strängnäs", "url": "https://www.1177.se/hitta-vard/kontaktkort/Vardcentralen-Mariefred-Strangnas/", "location": {"longitude": 17.21632094933982, "latitude": 59.26480120455866, "city": "Strängnäs", "cp": "00000"}, "metadata": {"address": "Solvändan 3, Mariefred", "business_hours": null, "phone_number": "0159-290 13"}, "prochain_rdv": null, "plateforme": null, "type": "vaccination-center", "appointment_count": 0, "internal_id": null, "vaccine_type": null, "appointment_by_phone_only": true, "erreur": null, "last_scan_with_availabilities": null, "request_counts": null, "appointment_schedules": [], "gid": null}, {"departement": "04", "nom": "Vårdcentralen Min Doktor Vårdcentral Nyköping, Nyköping", "url": "https://www.1177.se/hitta-vard/kontaktkort/Vardcentralen-Min-Doktor-Vardcentral-Nykoping-Nykoping/", "location": {"longitude": 17.040624951102977, "latitude": 58.75476978166271, "city": "Nyköping", "cp": "00000"}, "metadata": {"address": "Ängstugevägen 2", "business_hours": null, "phone_number": "0155-46 08 80"}, "prochain_rdv": null, "plateforme": null, "type": "vaccination-center", "appointment_count": 0, "internal_id": null, "vaccine_type": null, "appointment_by_phone_only": true, "erreur": null, "last_scan_with_availabilities": null, "request_counts": null, "appointment_schedules": [], "gid": null}, {"departement": "04", "nom": "Vårdcentralen Mäster Olof Strängnäs, Strängnäs", "url": "https://www.1177.se/hitta-vard/kontaktkort/Vardcentralen-Master-Olof-Strangnas-Strangnas/", "location": {"longitude": 17.034086537987587, "latitude": 59.37673014844489, "city": "Strängnäs", "cp": "00000"}, "metadata": {"address": "Storgatan 13", "business_hours": null, "phone_number": "0152-262 00"}, "prochain_rdv": null, "plateforme": null, "type": "vaccination-center", "appointment_count": 0, "internal_id": null, "vaccine_type": null, "appointment_by_phone_only": true, "erreur": null, "last_scan_with_availabilities": null, "request_counts": null, "appointment_schedules": [], "gid": null}, {"departement": "04", "nom": "Vårdcentralen Nävertorp Katrineholm, Katrineholm", "url": "https://www.1177.se/hitta-vard/kontaktkort/Vardcentralen-Navertorp-Katrineholm-Katrineholm/", "location": {"longitude": 16.191921754165897, "latitude": 58.98744984740194, "city": "Katrineholm", "cp": "00000"}, "metadata": {"address": "Västgötagatan 16, plan 2", "business_hours": null, "phone_number": "0150-48 86 00"}, "prochain_rdv": null, "plateforme": null, "type": "vaccination-center", "appointment_count": 0, "internal_id": null, "vaccine_type": null, "appointment_by_phone_only": true, "erreur": null, "last_scan_with_availabilities": null, "request_counts": null, "appointment_schedules": [], "gid": null}, {"departement": "04", "nom": "Vårdcentralen Oxelösund, Oxelösund", "url": "https://www.1177.se/hitta-vard/kontaktkort/Vardcentralen-Oxelosund-Oxelosund/", "location": {"longitude": 17.101696751901688, "latitude": 58.67098525294837, "city": "Oxelösund", "cp": "00000"}, "metadata": {"address": "Biblioteksgatan 2", "business_hours": null, "phone_number": "0155-24 70 01"}, "prochain_rdv": null, "plateforme": null, "type": "vaccination-center", "appointment_count": 0, "internal_id": null, "vaccine_type": null, "appointment_by_phone_only": true, "erreur": null, "last_scan_with_availabilities": null, "request_counts": null, "appointment_schedules": [], "gid": null}, {"departement": "04", "nom": "Vårdcentralen Skiftinge Eskilstuna, Eskilstuna", "url": "https://www.1177.se/hitta-vard/kontaktkort/Vardcentralen-Skiftinge-Eskilstuna-Eskilstuna/", "location": {"longitude": 16.537893275314623, "latitude": 59.38992659901644, "city": "Eskilstuna", "cp": "00000"}, "metadata": {"address": "Skiftinge centrum", "business_hours": null, "phone_number": "016-10 43 00"}, "prochain_rdv": null, "plateforme": null, "type": "vaccination-center", "appointment_count": 0, "internal_id": null, "vaccine_type": null, "appointment_by_phone_only": true, "erreur": null, "last_scan_with_availabilities": null, "request_counts": null, "appointment_schedules": [], "gid": null}, {"departement": "04", "nom": "Vårdcentralen Smeden Eskilstuna, Eskilstuna", "url": "https://www.1177.se/hitta-vard/kontaktkort/Vardcentralen-Smeden-Eskilstuna-Eskilstuna/", "location": {"longitude": 16.499749390417538, "latitude": 59.37835731437345, "city": "Eskilstuna", "cp": "00000"}, "metadata": {"address": "Björksgatan 8", "business_hours": null, "phone_number": "016-10 47 00"}, "prochain_rdv": null, "plateforme": null, "type": "vaccination-center", "appointment_count": 0, "internal_id": null, "vaccine_type": null, "appointment_by_phone_only": true, "erreur": null, "last_scan_with_availabilities": null, "request_counts": null, "appointment_schedules": [], "gid": null}, {"departement": "04", "nom": "Vårdcentralen Stadsfjärden Nyköping, Nyköping", "url": "https://www.1177.se/hitta-vard/kontaktkort/Vardcentralen-Stadsfjarden-Nykoping-Nykoping/", "location": {"longitude": 17.012711882551677, "latitude": 58.74502318595754, "city": "Nyköping", "cp": "00000"}, "metadata": {"address": "Gästabudsvägen 6", "business_hours": null, "phone_number": "0155-24 79 80"}, "prochain_rdv": null, "plateforme": null, "type": "vaccination-center", "appointment_count": 0, "internal_id": null, "vaccine_type": null, "appointment_by_phone_only": true, "erreur": null, "last_scan_with_availabilities": null, "request_counts": null, "appointment_schedules": [], "gid": null}, {"departement": "04", "nom": "Vårdcentralen Strängnäs, Strängnäs", "url": "https://www.1177.se/hitta-vard/kontaktkort/Vardcentralen-Strangnas-Strangnas/", "location": {"longitude": 17.0265286001446, "latitude": 59.367132330971025, "city": "Strängnäs", "cp": "00000"}, "metadata": {"address": "Finningevägen 40", "business_hours": null, "phone_number": "0152-260 90"}, "prochain_rdv": null, "plateforme": null, "type": "vaccination-center", "appointment_count": 0, "internal_id": null, "vaccine_type": null, "appointment_by_phone_only": true, "erreur": null, "last_scan_with_availabilities": null, "request_counts": null, "appointment_schedules": [], "gid": null}, {"departement": "04", "nom": "Vårdcentralen Torshälla, Eskilstuna", "url": "https://www.1177.se/hitta-vard/kontaktkort/Vardcentralen-Torshalla-Eskilstuna/", "location": {"longitude": 16.485550249249574, "latitude": 59.419608367587045, "city": "Eskilstuna", "cp": "00000"}, "metadata": {"address": "Germundsgatan 39, Torshälla", "business_hours": null, "phone_number": "016-10 41 20"}, "prochain_rdv": null, "plateforme": null, "type": "vaccination-center", "appointment_count": 0, "internal_id": null, "vaccine_type": null, "appointment_by_phone_only": true, "erreur": null, "last_scan_with_availabilities": null, "request_counts": null, "appointment_schedules": [], "gid": null}, {"departement": "04", "nom": "Vårdcentralen Trosa, Trosa", "url": "https://www.1177.se/hitta-vard/kontaktkort/Vardcentralen-Trosa-Trosa/", "location": {"longitude": 17.55920239154485, "latitude": 58.90203697601764, "city": "Trosa", "cp": "00000"}, "metadata": {"address": "Tomtaklintgatan 2", "business_hours": null, "phone_number": "0156-535 01"}, "prochain_rdv": null, "plateforme": null, "type": "vaccination-center", "appointment_count": 0, "internal_id": null, "vaccine_type": null, "appointment_by_phone_only": true, "erreur": null, "last_scan_with_availabilities": null, "request_counts": null, "appointment_schedules": [], "gid": null}, {"departement": "04", "nom": "Vårdcentralen Unicare Strängnäs, Strängnäs", "url": "https://www.1177.se/hitta-vard/kontaktkort/Vardcentralen-Unicare-Strangnas-Strangnas/", "location": {"longitude": 17.01997666561453, "latitude": 59.37918733604594, "city": "Strängnäs", "cp": "00000"}, "metadata": {"address": "Seminarievägen 10", "business_hours": null, "phone_number": "0152-262 80"}, "prochain_rdv": null, "plateforme": null, "type": "vaccination-center", "appointment_count": 0, "internal_id": null, "vaccine_type": null, "appointment_by_phone_only": true, "erreur": null, "last_scan_with_availabilities": null, "request_counts": null, "appointment_schedules": [], "gid": null}, {"departement": "04", "nom": "Vårdcentralen Vår Vårdcentral Katrineholm, Katrineholm", "url": "https://www.1177.se/hitta-vard/kontaktkort/Vardcentralen-Var-Vardcentral-Katrineholm-Katrineholm/", "location": {"longitude": 16.20422179405783, "latitude": 58.99529454888172, "city": "Katrineholm", "cp": "00000"}, "metadata": {"address": "Drottninggatan 4", "business_hours": null, "phone_number": "0150-725 00"}, "prochain_rdv": null, "plateforme": null, "type": "vaccination-center", "appointment_count": 0, "internal_id": null, "vaccine_type": null, "appointment_by_phone_only": true, "erreur": null, "last_scan_with_availabilities": null, "request_counts": null, "appointment_schedules": [], "gid": null}, {"departement": "04", "nom": "Vårdcentralen Åsidan Nyköping, Nyköping", "url": "https://www.1177.se/hitta-vard/kontaktkort/Vardcentralen-Asidan-Nykoping-Nykoping/", "location": {"longitude": 16.99933118978741, "latitude": 58.76032094119558, "city": "Nyköping", "cp": "00000"}, "metadata": {"address": "Nyköpings lasarett, entré 8, Visornas väg 6", "business_hours": null, "phone_number": "0155-24 52 11"}, "prochain_rdv": null, "plateforme": null, "type": "vaccination-center", "appointment_count": 0, "internal_id": null, "vaccine_type": null, "appointment_by_phone_only": true, "erreur": null, "last_scan_with_availabilities": null, "request_counts": null, "appointment_schedules": [], "gid": null}]}