{"version": 1, "last_updated": "2021-05-25 22:52:45.741800+02:00", "last_scrap": [], "centres_disponibles": [{"departement": "06", "nom": "Aneby vårdcentral (55+, 18-59 riskgrupp)", "url": "https://bokning.mittvaccin.se/klinik/1176", "location": {"longitude": 14.817662416449679, "latitude": 57.836546353084785, "city": "Aneby", "cp": "00000"}, "metadata": {"address": "Storgatan 29, Aneby", "business_hours": null, "phone_number": "010-243 38 00"}, "prochain_rdv": "2021-05-26 09:20:00", "plateforme": "MittVaccin", "type": "vaccination-center", "appointment_count": 8, "internal_id": "1176", "vaccine_type": null, "appointment_by_phone_only": false, "erreur": null, "last_scan_with_availabilities": null, "request_counts": null, "appointment_schedules": [], "gid": null}, {"departement": "06", "nom": "Bra Liv Gränna vårdcentral (55+, 18-59 riskgrupp)", "url": "https://bokning.mittvaccin.se/klinik/1183", "location": {"longitude": 14.46789629286442, "latitude": 58.02616642345095, "city": "Jönköping", "cp": "00000"}, "metadata": {"address": "Hävdevägen 31, Gränna", "business_hours": null, "phone_number": "010-242 49 00"}, "prochain_rdv": "2021-06-10 13:44:00", "plateforme": "MittVaccin", "type": "vaccination-center", "appointment_count": 234, "internal_id": "1183", "vaccine_type": null, "appointment_by_phone_only": false, "erreur": null, "last_scan_with_availabilities": null, "request_counts": null, "appointment_schedules": [], "gid": null}, {"departement": "06", "nom": "Bra Liv Habo vårdcentral", "url": "https://bokning.mittvaccin.se/klinik/1184", "location": {"longitude": 14.090684110997172, "latitude": 57.90910068255196, "city": "Habo", "cp": "00000"}, "metadata": {"address": "Kärrsvägen 37, Habo", "business_hours": null, "phone_number": "010-242 48 00"}, "prochain_rdv": "2021-06-03 11:06:00", "plateforme": "MittVaccin", "type": "vaccination-center", "appointment_count": 356, "internal_id": "1184", "vaccine_type": null, "appointment_by_phone_only": false, "erreur": null, "last_scan_with_availabilities": null, "request_counts": null, "appointment_schedules": [], "gid": null}, {"departement": "06", "nom": "Bra Liv Hälsan 1 vårdcentral, Jönköping", "url": "https://bokning.mittvaccin.se/klinik/1186", "location": {"longitude": 14.158432109596234, "latitude": 57.77947881924537, "city": "Jönköping", "cp": "00000"}, "metadata": {"address": "Hälsans vårdcentrum, Fabriksgatan 17, Jönköping", "business_hours": null, "phone_number": "010-242 54 00"}, "prochain_rdv": "2021-06-03 16:36:00", "plateforme": "MittVaccin", "type": "vaccination-center", "appointment_count": 58, "internal_id": "1186", "vaccine_type": null, "appointment_by_phone_only": false, "erreur": null, "last_scan_with_availabilities": null, "request_counts": null, "appointment_schedules": [], "gid": null}, {"departement": "06", "nom": "Bra Liv Hälsan 2 vårdcentral, Jönköping", "url": "https://bokning.mittvaccin.se/klinik/1187", "location": {"longitude": 14.158432109596234, "latitude": 57.77947881924537, "city": "Jönköping", "cp": "00000"}, "metadata": {"address": "Hälsans vårdcentrum, Fabriksgatan 17, Jönköping", "business_hours": null, "phone_number": "010-242 58 00"}, "prochain_rdv": "2021-06-02 08:20:00", "plateforme": "MittVaccin", "type": "vaccination-center", "appointment_count": 54, "internal_id": "1187", "vaccine_type": null, "appointment_by_phone_only": false, "erreur": null, "last_scan_with_availabilities": null, "request_counts": null, "appointment_schedules": [], "gid": null}, {"departement": "06", "nom": "Bra Liv Kungshälsan vårdcentral, Huskvarna", "url": "https://bokning.mittvaccin.se/klinik/1198", "location": {"longitude": 14.27242696810062, "latitude": 57.7897280729436, "city": "Jönköping", "cp": "00000"}, "metadata": {"address": "Huskvarna vårdcentrum, plan 5, Jönköpingsvägen 19, Huskvarna", "business_hours": null, "phone_number": "010-242 35 20"}, "prochain_rdv": "2021-06-17 10:18:00", "plateforme": "MittVaccin", "type": "vaccination-center", "appointment_count": 1299, "internal_id": "1198", "vaccine_type": null, "appointment_by_phone_only": false, "erreur": null, "last_scan_with_availabilities": null, "request_counts": null, "appointment_schedules": [], "gid": null}, {"departement": "06", "nom": "Bra Liv Landsbro vårdcentral (55+, 18-59 riskgrupp)", "url": "https://bokning.mittvaccin.se/klinik/1190", "location": {"longitude": 14.912555900408043, "latitude": 57.370543731867315, "city": "Vetlanda", "cp": "00000"}, "metadata": {"address": "Valåkravägen 1, Landsbro", "business_hours": null, "phone_number": "010-243 25 10"}, "prochain_rdv": "2021-06-02 08:50:00", "plateforme": "MittVaccin", "type": "vaccination-center", "appointment_count": 513, "internal_id": "1190", "vaccine_type": null, "appointment_by_phone_only": false, "erreur": null, "last_scan_with_availabilities": null, "request_counts": null, "appointment_schedules": [], "gid": null}, {"departement": "06", "nom": "Bra Liv Mullsjö vårdcentral", "url": "https://bokning.mittvaccin.se/klinik/1194", "location": {"longitude": 13.88589429818079, "latitude": 57.92107739299626, "city": "Mullsjö", "cp": "00000"}, "metadata": {"address": "Gunnarsbovägen 35, Mullsjö", "business_hours": null, "phone_number": "010-242 47 00"}, "prochain_rdv": "2021-05-26 11:10:00", "plateforme": "MittVaccin", "type": "vaccination-center", "appointment_count": 264, "internal_id": "1194", "vaccine_type": null, "appointment_by_phone_only": false, "erreur": null, "last_scan_with_availabilities": null, "request_counts": null, "appointment_schedules": [], "gid": null}, {"departement": "06", "nom": "Bra Liv Norrahammar vårdcentral (55+, 18-59 riskgrupp)", "url": "https://bokning.mittvaccin.se/klinik/1195", "location": {"longitude": 14.117167961555985, "latitude": 57.70371528734357, "city": "Jönköping", "cp": "00000"}, "metadata": {"address": "Postgatan 1, Norrahammar", "business_hours": null, "phone_number": "010-242 39 00"}, "prochain_rdv": "2021-06-02 10:15:00", "plateforme": "MittVaccin", "type": "vaccination-center", "appointment_count": 128, "internal_id": "1195", "vaccine_type": null, "appointment_by_phone_only": false, "erreur": null, "last_scan_with_availabilities": null, "request_counts": null, "appointment_schedules": [], "gid": null}, {"departement": "06", "nom": "Bra Liv Nässjö vårdcentral (55+, 18-59 riskgrupp)", "url": "https://bokning.mittvaccin.se/klinik/1196", "location": {"longitude": 14.713115286736578, "latitude": 57.65509346846896, "city": "Nässjö", "cp": "00000"}, "metadata": {"address": "Skansgatan 9, Nässjö", "business_hours": null, "phone_number": "010-243 31 70"}, "prochain_rdv": "2021-06-11 09:51:00", "plateforme": "MittVaccin", "type": "vaccination-center", "appointment_count": 894, "internal_id": "1196", "vaccine_type": null, "appointment_by_phone_only": false, "erreur": null, "last_scan_with_availabilities": null, "request_counts": null, "appointment_schedules": [], "gid": null}, {"departement": "06", "nom": "Bra Liv Rosenlund vårdcentral, Jönköping", "url": "https://bokning.mittvaccin.se/klinik/1199", "location": {"longitude": 14.207046075921033, "latitude": 57.77839529528235, "city": "Jönköping", "cp": "00000"}, "metadata": {"address": "Hermansvägen 5, Jönköping", "business_hours": null, "phone_number": "010-242 44 00"}, "prochain_rdv": "2021-06-10 15:12:00", "plateforme": "MittVaccin", "type": "vaccination-center", "appointment_count": 103, "internal_id": "1199", "vaccine_type": null, "appointment_by_phone_only": false, "erreur": null, "last_scan_with_availabilities": null, "request_counts": null, "appointment_schedules": [], "gid": null}, {"departement": "06", "nom": "Bra Liv Råslätt vårdcentral, Jönköping (55+, 18-59 riskgrupp)", "url": "https://bokning.mittvaccin.se/klinik/1201", "location": {"longitude": 14.15085169944695, "latitude": 57.739040222436465, "city": "Jönköping", "cp": "00000"}, "metadata": {"address": "Tornfalksgatan 11, Jönköping", "business_hours": null, "phone_number": "010-242 37 00"}, "prochain_rdv": "2021-06-09 10:45:00", "plateforme": "MittVaccin", "type": "vaccination-center", "appointment_count": 464, "internal_id": "1201", "vaccine_type": null, "appointment_by_phone_only": false, "erreur": null, "last_scan_with_availabilities": null, "request_counts": null, "appointment_schedules": [], "gid": null}, {"departement": "06", "nom": "Bra Liv Sävsjö vårdcentral", "url": "https://bokning.mittvaccin.se/klinik/1209", "location": {"longitude": 14.657725346980323, "latitude": 57.40692957957309, "city": "Sävsjö", "cp": "00000"}, "metadata": {"address": "Villagatan 14, Sävsjö", "business_hours": null, "phone_number": "010-243 86 10"}, "prochain_rdv": "2021-06-03 10:20:00", "plateforme": "MittVaccin", "type": "vaccination-center", "appointment_count": 534, "internal_id": "1209", "vaccine_type": null, "appointment_by_phone_only": false, "erreur": null, "last_scan_with_availabilities": null, "request_counts": null, "appointment_schedules": [], "gid": null}, {"departement": "06", "nom": "Bra Liv Tranås vårdcentral", "url": "https://bokning.mittvaccin.se/klinik/1206", "location": {"longitude": 14.987741757498574, "latitude": 58.042269800955545, "city": "Tranås", "cp": "00000"}, "metadata": {"address": "Norra Storgatan 101, Tranås", "business_hours": null, "phone_number": "010-243 96 01"}, "prochain_rdv": "2021-06-01 14:39:00", "plateforme": "MittVaccin", "type": "vaccination-center", "appointment_count": 50, "internal_id": "1206", "vaccine_type": null, "appointment_by_phone_only": false, "erreur": null, "last_scan_with_availabilities": null, "request_counts": null, "appointment_schedules": [], "gid": null}, {"departement": "06", "nom": "Bra Liv Vaggeryd vårdcentral", "url": "https://bokning.mittvaccin.se/klinik/1207", "location": {"longitude": 14.133885805545892, "latitude": 57.4922193343132, "city": "Vaggeryd", "cp": "00000"}, "metadata": {"address": "Lundavägen 23, Vaggeryd", "business_hours": null, "phone_number": "010-244 05 70"}, "prochain_rdv": "2021-05-27 09:51:00", "plateforme": "MittVaccin", "type": "vaccination-center", "appointment_count": 141, "internal_id": "1207", "vaccine_type": null, "appointment_by_phone_only": false, "erreur": null, "last_scan_with_availabilities": null, "request_counts": null, "appointment_schedules": [], "gid": null}, {"departement": "06", "nom": "Bra Liv Vetlanda vårdcentral", "url": "https://bokning.mittvaccin.se/klinik/2050", "location": {"longitude": 15.081352462610193, "latitude": 57.432375422981, "city": "Vetlanda", "cp": "00000"}, "metadata": {"address": "Norrvägen 2 B, Vetlanda", "business_hours": null, "phone_number": "010-243 20 10"}, "prochain_rdv": "2021-05-27 09:00:00", "plateforme": "MittVaccin", "type": "vaccination-center", "appointment_count": 1100, "internal_id": "2050", "vaccine_type": null, "appointment_by_phone_only": false, "erreur": null, "last_scan_with_availabilities": null, "request_counts": null, "appointment_schedules": [], "gid": null}, {"departement": "06", "nom": "Bräcke Diakoni vårdcentralen Lokstallarna, Jönköping (55+, 18-59 riskgrupp)", "url": "https://bokning.mittvaccin.se/klinik/1224", "location": {"longitude": 14.150961812634723, "latitude": 57.78769726541282, "city": "Jönköping", "cp": "00000"}, "metadata": {"address": "Kortebovägen 6, Jönköping", "business_hours": null, "phone_number": "010-242 89 00"}, "prochain_rdv": "2021-06-01 11:50:00", "plateforme": "MittVaccin", "type": "vaccination-center", "appointment_count": 164, "internal_id": "1224", "vaccine_type": null, "appointment_by_phone_only": false, "erreur": null, "last_scan_with_availabilities": null, "request_counts": null, "appointment_schedules": [], "gid": null}, {"departement": "06", "nom": "Bräcke Diakoni vårdcentralen Nyhälsan Nässjö (55+, 18-59 riskgrupp)", "url": "https://bokning.mittvaccin.se/klinik/1225", "location": {"longitude": 14.706270565158187, "latitude": 57.64878432193302, "city": "Nässjö", "cp": "00000"}, "metadata": {"address": "Nyhemsgatan 6, Nässjö", "business_hours": null, "phone_number": "010-243 39 00"}, "prochain_rdv": "2021-05-28 11:24:00", "plateforme": "MittVaccin", "type": "vaccination-center", "appointment_count": 216, "internal_id": "1225", "vaccine_type": null, "appointment_by_phone_only": false, "erreur": null, "last_scan_with_availabilities": null, "request_counts": null, "appointment_schedules": [], "gid": null}, {"departement": "06", "nom": "Läkarhuset Tranås (55+, 18-59 riskgrupp)", "url": "https://bokning.mittvaccin.se/klinik/1236", "location": {"longitude": 14.976018999635242, "latitude": 58.03084473580738, "city": "Tranås", "cp": "00000"}, "metadata": {"address": "Vasagatan 1, Tranås", "business_hours": null, "phone_number": "010-243 98 60"}, "prochain_rdv": "2021-06-17 14:10:00", "plateforme": "MittVaccin", "type": "vaccination-center", "appointment_count": 100, "internal_id": "1236", "vaccine_type": null, "appointment_by_phone_only": false, "erreur": null, "last_scan_with_availabilities": null, "request_counts": null, "appointment_schedules": [], "gid": null}, {"departement": "06", "nom": "Unicare Läkarhuset Väster vårdcentralsfilial Jönköping (55+, 18-59 riskgrupp)", "url": "https://bokning.mittvaccin.se/klinik/1259", "location": {"longitude": 14.163034896807421, "latitude": 57.78214287016117, "city": "Jönköping", "cp": "00000"}, "metadata": {"address": "Barnarpsgatan 13, Jönköping", "business_hours": null, "phone_number": "010-242 84 00"}, "prochain_rdv": "2021-06-03 15:32:00", "plateforme": "MittVaccin", "type": "vaccination-center", "appointment_count": 878, "internal_id": "1259", "vaccine_type": null, "appointment_by_phone_only": false, "erreur": null, "last_scan_with_availabilities": null, "request_counts": null, "appointment_schedules": [], "gid": null}], "centres_indisponibles": [{"departement": "06", "nom": "Aneby vårdcentral (18+ LSS/assistans/vårdnära)", "url": "https://bokning.mittvaccin.se/klinik/1517", "location": {"longitude": 14.817662416449679, "latitude": 57.836546353084785, "city": "Aneby", "cp": "00000"}, "metadata": {"address": "Storgatan 29, Aneby", "business_hours": null, "phone_number": "010-243 38 00"}, "prochain_rdv": null, "plateforme": "MittVaccin", "type": "vaccination-center", "appointment_count": 0, "internal_id": "1517", "vaccine_type": null, "appointment_by_phone_only": false, "erreur": null, "last_scan_with_availabilities": null, "request_counts": null, "appointment_schedules": [], "gid": null}, {"departement": "06", "nom": "Bra Liv Bankeryd vårdcentral", "url": "https://bokning.mittvaccin.se/klinik/1175", "location": {"longitude": 14.126404129292839, "latitude": 57.862036664557394, "city": "Jönköping", "cp": "00000"}, "metadata": {"address": "Sjöåkravägen 18, Bankeryd", "business_hours": null, "phone_number": "010-242 38 00"}, "prochain_rdv": null, "plateforme": "MittVaccin", "type": "vaccination-center", "appointment_count": 0, "internal_id": "1175", "vaccine_type": null, "appointment_by_phone_only": false, "erreur": null, "last_scan_with_availabilities": null, "request_counts": null, "appointment_schedules": [], "gid": null}, {"departement": "06", "nom": "Bra Liv Bodafors vårdcentral (18+ LSS/assistans/vårdnära)", "url": "https://bokning.mittvaccin.se/klinik/1192", "location": {"longitude": 14.702894690529394, "latitude": 57.506040204363416, "city": "Nässjö", "cp": "00000"}, "metadata": {"address": "Torget 1, Bodafors", "business_hours": null, "phone_number": "010-243 37 00"}, "prochain_rdv": null, "plateforme": "MittVaccin", "type": "vaccination-center", "appointment_count": 0, "internal_id": "1192", "vaccine_type": null, "appointment_by_phone_only": false, "erreur": null, "last_scan_with_availabilities": null, "request_counts": null, "appointment_schedules": [], "gid": null}, {"departement": "06", "nom": "Bra Liv Bodafors vårdcentral (55+, 18-59 riskgrupp)", "url": "https://bokning.mittvaccin.se/klinik/1177", "location": {"longitude": 14.702894690529394, "latitude": 57.506040204363416, "city": "Nässjö", "cp": "00000"}, "metadata": {"address": "Torget 1, Bodafors", "business_hours": null, "phone_number": "010-243 37 00"}, "prochain_rdv": null, "plateforme": "MittVaccin", "type": "vaccination-center", "appointment_count": 0, "internal_id": "1177", "vaccine_type": null, "appointment_by_phone_only": false, "erreur": null, "last_scan_with_availabilities": null, "request_counts": null, "appointment_schedules": [], "gid": null}, {"departement": "06", "nom": "Bra Liv Eksjö vårdcentral (18+ LSS/assistans/vårdnära)", "url": "https://bokning.mittvaccin.se/klinik/1189", "location": {"longitude": 14.966103278274488, "latitude": 57.66550311054734, "city": "Eksjö", "cp": "00000"}, "metadata": {"address": "Breviksvägen 6, Eksjö", "business_hours": null, "phone_number": "010-243 59 25"}, "prochain_rdv": null, "plateforme": "MittVaccin", "type": "vaccination-center", "appointment_count": 0, "internal_id": "1189", "vaccine_type": null, "appointment_by_phone_only": false, "erreur": null, "last_scan_with_availabilities": null, "request_counts": null, "appointment_schedules": [], "gid": null}, {"departement": "06", "nom": "Bra Liv Eksjö vårdcentral (55+, 18-59 riskgrupp)", "url": "https://bokning.mittvaccin.se/klinik/1179", "location": {"longitude": 14.966103278274488, "latitude": 57.66550311054734, "city": "Eksjö", "cp": "00000"}, "metadata": {"address": "Breviksvägen 6, Eksjö", "business_hours": null, "phone_number": "010-243 59 25"}, "prochain_rdv": null, "plateforme": "MittVaccin", "type": "vaccination-center", "appointment_count": 0, "internal_id": "1179", "vaccine_type": null, "appointment_by_phone_only": false, "erreur": null, "last_scan_with_availabilities": null, "request_counts": null, "appointment_schedules": [], "gid": null}, {"departement": "06", "nom": "Bra Liv Gislaved vårdcentral", "url": "https://bokning.mittvaccin.se/klinik/1181", "location": {"longitude": 13.537324802106674, "latitude": 57.30506731866744, "city": "Gislaved", "cp": "00000"}, "metadata": {"address": "Norra Långgatan 25, Gislaved", "business_hours": null, "phone_number": "010-244 20 15"}, "prochain_rdv": null, "plateforme": "MittVaccin", "type": "vaccination-center", "appointment_count": 0, "internal_id": "1181", "vaccine_type": null, "appointment_by_phone_only": false, "erreur": null, "last_scan_with_availabilities": null, "request_counts": null, "appointment_schedules": [], "gid": null}, {"departement": "06", "nom": "Bra Liv Gnosjö vårdcentral", "url": "https://bokning.mittvaccin.se/klinik/1182", "location": {"longitude": 13.740003220192987, "latitude": 57.35573378899504, "city": "Gnosjö", "cp": "00000"}, "metadata": {"address": "Järnvägsgatan 49, Gnosjö", "business_hours": null, "phone_number": "010-244 80 15"}, "prochain_rdv": null, "plateforme": "MittVaccin", "type": "vaccination-center", "appointment_count": 0, "internal_id": "1182", "vaccine_type": null, "appointment_by_phone_only": false, "erreur": null, "last_scan_with_availabilities": null, "request_counts": null, "appointment_schedules": [], "gid": null}, {"departement": "06", "nom": "Bra Liv Gränna vårdcentral (18+ LSS/assistans/vårdnära)", "url": "https://bokning.mittvaccin.se/klinik/1499", "location": {"longitude": 14.46789629286442, "latitude": 58.02616642345095, "city": "Jönköping", "cp": "00000"}, "metadata": {"address": "Hävdevägen 31, Gränna", "business_hours": null, "phone_number": "010-242 49 00"}, "prochain_rdv": null, "plateforme": "MittVaccin", "type": "vaccination-center", "appointment_count": 0, "internal_id": "1499", "vaccine_type": null, "appointment_by_phone_only": false, "erreur": null, "last_scan_with_availabilities": null, "request_counts": null, "appointment_schedules": [], "gid": null}, {"departement": "06", "nom": "Bra Liv Landsbro vårdcentral (18+ LSS/assistans/vårdnära)", "url": "https://bokning.mittvaccin.se/klinik/1507", "location": {"longitude": 14.912555900408043, "latitude": 57.370543731867315, "city": "Vetlanda", "cp": "00000"}, "metadata": {"address": "Valåkravägen 1, Landsbro", "business_hours": null, "phone_number": "010-243 25 10"}, "prochain_rdv": null, "plateforme": "MittVaccin", "type": "vaccination-center", "appointment_count": 0, "internal_id": "1507", "vaccine_type": null, "appointment_by_phone_only": false, "erreur": null, "last_scan_with_availabilities": null, "request_counts": null, "appointment_schedules": [], "gid": null}, {"departement": "06", "nom": "Bra Liv Norrahammar vårdcentral (18+ LSS/assistans/vårdnära)", "url": "https://bokning.mittvaccin.se/klinik/1494", "location": {"longitude": 14.117167961555985, "latitude": 57.70371528734357, "city": "Jönköping", "cp": "00000"}, "metadata": {"address": "Postgatan 1, Norrahammar", "business_hours": null, "phone_number": "010-242 39 00"}, "prochain_rdv": null, "plateforme": "MittVaccin", "type": "vaccination-center", "appointment_count": 0, "internal_id": "1494", "vaccine_type": null, "appointment_by_phone_only": false, "erreur": null, "last_scan_with_availabilities": null, "request_counts": null, "appointment_schedules": [], "gid": null}, {"departement": "06", "nom": "Bra Liv Nässjö vårdcentral (18+ LSS/assistans/vårdnära)", "url": "https://bokning.mittvaccin.se/klinik/1191", "location": {"longitude": 14.713115286736578, "latitude": 57.65509346846896, "city": "Nässjö", "cp": "00000"}, "metadata": {"address": "Skansgatan 9, Nässjö", "business_hours": null, "phone_number": "010-243 31 70"}, "prochain_rdv": null, "plateforme": "MittVaccin", "type": "vaccination-center", "appointment_count": 0, "internal_id": "1191", "vaccine_type": null, "appointment_by_phone_only": false, "erreur": null, "last_scan_with_availabilities": null, "request_counts": null, "appointment_schedules": [], "gid": null}, {"departement": "06", "nom": "Bra Liv Rydaholm vårdcentral (18+ LSS/assistans/vårdnära)", "url": "https://bokning.mittvaccin.se/klinik/1178", "location": {"longitude": 14.304028846656465, "latitude": 56.984216189366975, "city": "Värnamo", "cp": "00000"}, "metadata": {"address": "Dahlgrens väg, Rydaholm", "business_hours": null, "phone_number": "010-244 17 50"}, "prochain_rdv": null, "plateforme": "MittVaccin", "type": "vaccination-center", "appointment_count": 0, "internal_id": "1178", "vaccine_type": null, "appointment_by_phone_only": false, "erreur": null, "last_scan_with_availabilities": null, "request_counts": null, "appointment_schedules": [], "gid": null}, {"departement": "06", "nom": "Bra Liv Rydaholm vårdcentral (55+, 18-59 riskgrupp)", "url": "https://bokning.mittvaccin.se/klinik/1200", "location": {"longitude": 14.304028846656465, "latitude": 56.984216189366975, "city": "Värnamo", "cp": "00000"}, "metadata": {"address": "Dahlgrens väg, Rydaholm", "business_hours": null, "phone_number": "010-244 17 50"}, "prochain_rdv": null, "plateforme": "MittVaccin", "type": "vaccination-center", "appointment_count": 0, "internal_id": "1200", "vaccine_type": null, "appointment_by_phone_only": false, "erreur": null, "last_scan_with_availabilities": null, "request_counts": null, "appointment_schedules": [], "gid": null}, {"departement": "06", "nom": "Bra Liv Råslätt vårdcentral, Jönköping (18+ LSS/assistans/vårdnära)", "url": "https://bokning.mittvaccin.se/klinik/1493", "location": {"longitude": 14.15085169944695, "latitude": 57.739040222436465, "city": "Jönköping", "cp": "00000"}, "metadata": {"address": "Tornfalksgatan 11, Jönköping", "business_hours": null, "phone_number": "010-242 37 00"}, "prochain_rdv": null, "plateforme": "MittVaccin", "type": "vaccination-center", "appointment_count": 0, "internal_id": "1493", "vaccine_type": null, "appointment_by_phone_only": false, "erreur": null, "last_scan_with_availabilities": null, "request_counts": null, "appointment_schedules": [], "gid": null}, {"departement": "06", "nom": "Bra Liv Smålandsstenar vårdcentral (18+ LSS/assistans/vårdnära)", "url": "https://bokning.mittvaccin.se/klinik/1197", "location": {"longitude": 13.410842243364137, "latitude": 57.16360501461046, "city": "Gislaved", "cp": "00000"}, "metadata": {"address": "Torggatan 6, Smålandsstenar", "business_hours": null, "phone_number": "010-244 22 35"}, "prochain_rdv": null, "plateforme": "MittVaccin", "type": "vaccination-center", "appointment_count": 0, "internal_id": "1197", "vaccine_type": null, "appointment_by_phone_only": false, "erreur": null, "last_scan_with_availabilities": null, "request_counts": null, "appointment_schedules": [], "gid": null}, {"departement": "06", "nom": "Bra Liv Smålandsstenar vårdcentral (55+, 18-59 riskgrupp)", "url": "https://bokning.mittvaccin.se/klinik/1203", "location": {"longitude": 13.410842243364137, "latitude": 57.16360501461046, "city": "Gislaved", "cp": "00000"}, "metadata": {"address": "Torggatan 6, Smålandsstenar", "business_hours": null, "phone_number": "010-244 22 35"}, "prochain_rdv": null, "plateforme": "MittVaccin", "type": "vaccination-center", "appointment_count": 0, "internal_id": "1203", "vaccine_type": null, "appointment_by_phone_only": false, "erreur": null, "last_scan_with_availabilities": null, "request_counts": null, "appointment_schedules": [], "gid": null}, {"departement": "06", "nom": "Bra Liv Vråen vårdcentral, Värnamo (18+ LSS/assistans/vårdnära)", "url": "https://bokning.mittvaccin.se/klinik/1218", "location": {"longitude": 14.06769175799465, "latitude": 57.18215050776865, "city": "Värnamo", "cp": "00000"}, "metadata": {"address": "Vråenvägen 31, Värnamo", "business_hours": null, "phone_number": "010-244 30 15"}, "prochain_rdv": null, "plateforme": "MittVaccin", "type": "vaccination-center", "appointment_count": 0, "internal_id": "1218", "vaccine_type": null, "appointment_by_phone_only": false, "erreur": null, "last_scan_with_availabilities": null, "request_counts": null, "appointment_schedules": [], "gid": null}, {"departement": "06", "nom": "Bra Liv Vråen vårdcentral, Värnamo (55+, 18-59 riskgrupp)", "url": "https://bokning.mittvaccin.se/klinik/1210", "location": {"longitude": 14.06769175799465, "latitude": 57.18215050776865, "city": "Värnamo", "cp": "00000"}, "metadata": {"address": "Vråenvägen 31, Värnamo", "business_hours": null, "phone_number": "010-244 30 15"}, "prochain_rdv": null, "plateforme": "MittVaccin", "type": "vaccination-center", "appointment_count": 0, "internal_id": "1210", "vaccine_type": null, "appointment_by_phone_only": false, "erreur": null, "last_scan_with_availabilities": null, "request_counts": null, "appointment_schedules": [], "gid": null}, {"departement": "06", "nom": "Bräcke Diakoni Nyhälsan Forserum filial (18+ LSS/assistans/vårdnära)", "url": "https://bokning.mittvaccin.se/klinik/1511", "location": {"longitude": 14.4775813245743, "latitude": 57.70282981263284, "city": "Nässjö", "cp": "00000"}, "metadata": {"address": "Lillsjövägen 12, Forserum", "business_hours": null, "phone_number": "010-243 39 00"}, "prochain_rdv": null, "plateforme": "MittVaccin", "type": "vaccination-center", "appointment_count": 0, "internal_id": "1511", "vaccine_type": null, "appointment_by_phone_only": false, "erreur": null, "last_scan_with_availabilities": null, "request_counts": null, "appointment_schedules": [], "gid": null}, {"departement": "06", "nom": "Bräcke Diakoni Nyhälsan Forserum filial (55+, 18-59 riskgrupp)", "url": "https://bokning.mittvaccin.se/klinik/1294", "location": {"longitude": 14.4775813245743, "latitude": 57.70282981263284, "city": "Nässjö", "cp": "00000"}, "metadata": {"address": "Lillsjövägen 12, Forserum", "business_hours": null, "phone_number": "010-243 39 00"}, "prochain_rdv": null, "plateforme": "MittVaccin", "type": "vaccination-center", "appointment_count": 0, "internal_id": "1294", "vaccine_type": null, "appointment_by_phone_only": false, "erreur": null, "last_scan_with_availabilities": null, "request_counts": null, "appointment_schedules": [], "gid": null}, {"departement": "06", "nom": "Bräcke Diakoni vårdcentralen Lokstallarna, Jönköping (18+ LSS/assistans/vårdnära)", "url": "https://bokning.mittvaccin.se/klinik/1509", "location": {"longitude": 14.150961812634723, "latitude": 57.78769726541282, "city": "Jönköping", "cp": "00000"}, "metadata": {"address": "Kortebovägen 6, Jönköping", "business_hours": null, "phone_number": "010-242 89 00"}, "prochain_rdv": null, "plateforme": "MittVaccin", "type": "vaccination-center", "appointment_count": 0, "internal_id": "1509", "vaccine_type": null, "appointment_by_phone_only": false, "erreur": null, "last_scan_with_availabilities": null, "request_counts": null, "appointment_schedules": [], "gid": null}, {"departement": "06", "nom": "Bräcke Diakoni vårdcentralen Nyhälsan Nässjö (18+ LSS/assistans/vårdnära)", "url": "https://bokning.mittvaccin.se/klinik/1510", "location": {"longitude": 14.706270565158187, "latitude": 57.64878432193302, "city": "Nässjö", "cp": "00000"}, "metadata": {"address": "Nyhemsgatan 6, Nässjö", "business_hours": null, "phone_number": "010-243 39 00"}, "prochain_rdv": null, "plateforme": "MittVaccin", "type": "vaccination-center", "appointment_count": 0, "internal_id": "1510", "vaccine_type": null, "appointment_by_phone_only": false, "erreur": null, "last_scan_with_availabilities": null, "request_counts": null, "appointment_schedules": [], "gid": null}, {"departement": "06", "nom": "Gislehälsan, Gislaved (18+ LSS/assistans/vårdnära)", "url": "https://bokning.mittvaccin.se/klinik/1521", "location": {"longitude": 13.538429392319102, "latitude": 57.301413472495824, "city": "Gislaved", "cp": "00000"}, "metadata": {"address": "Regeringsgatan 20, Gislaved", "business_hours": null, "phone_number": "010-244 29 49"}, "prochain_rdv": null, "plateforme": "MittVaccin", "type": "vaccination-center", "appointment_count": 0, "internal_id": "1521", "vaccine_type": null, "appointment_by_phone_only": false, "erreur": null, "last_scan_with_availabilities": null, "request_counts": null, "appointment_schedules": [], "gid": null}, {"departement": "06", "nom": "Gislehälsan, Gislaved (55+, 18-59 riskgrupp)", "url": "https://bokning.mittvaccin.se/klinik/1223", "location": {"longitude": 13.538429392319102, "latitude": 57.301413472495824, "city": "Gislaved", "cp": "00000"}, "metadata": {"address": "Regeringsgatan 20, Gislaved", "business_hours": null, "phone_number": "010-244 29 49"}, "prochain_rdv": null, "plateforme": "MittVaccin", "type": "vaccination-center", "appointment_count": 0, "internal_id": "1223", "vaccine_type": null, "appointment_by_phone_only": false, "erreur": null, "last_scan_with_availabilities": null, "request_counts": null, "appointment_schedules": [], "gid": null}, {"departement": "06", "nom": "Läkarhuset Tranås (18+ LSS/assistans/vårdnära)", "url": "https://bokning.mittvaccin.se/klinik/1520", "location": {"longitude": 14.976018999635242, "latitude": 58.03084473580738, "city": "Tranås", "cp": "00000"}, "metadata": {"address": "Vasagatan 1, Tranås", "business_hours": null, "phone_number": "010-243 98 60"}, "prochain_rdv": null, "plateforme": "MittVaccin", "type": "vaccination-center", "appointment_count": 0, "internal_id": "1520", "vaccine_type": null, "appointment_by_phone_only": false, "erreur": null, "last_scan_with_availabilities": null, "request_counts": null, "appointment_schedules": [], "gid": null}, {"departement": "06", "nom": "Nässjö Läkarhus (18+ LSS/assistans/vårdnära)", "url": "https://bokning.mittvaccin.se/klinik/1519", "location": {"longitude": 14.691821984274767, "latitude": 57.6595321738957, "city": "Nässjö", "cp": "00000"}, "metadata": {"address": "Mariagatan 30, Nässjö", "business_hours": null, "phone_number": "010-243 28 00"}, "prochain_rdv": null, "plateforme": "MittVaccin", "type": "vaccination-center", "appointment_count": 0, "internal_id": "1519", "vaccine_type": null, "appointment_by_phone_only": false, "erreur": null, "last_scan_with_availabilities": null, "request_counts": null, "appointment_schedules": [], "gid": null}, {"departement": "06", "nom": "Nässjö Läkarhus (55+, 18-59 riskgrupp)", "url": "https://bokning.mittvaccin.se/klinik/1235", "location": {"longitude": 14.691821984274767, "latitude": 57.6595321738957, "city": "Nässjö", "cp": "00000"}, "metadata": {"address": "Mariagatan 30, Nässjö", "business_hours": null, "phone_number": "010-243 28 00"}, "prochain_rdv": null, "plateforme": "MittVaccin", "type": "vaccination-center", "appointment_count": 0, "internal_id": "1235", "vaccine_type": null, "appointment_by_phone_only": false, "erreur": null, "last_scan_with_availabilities": null, "request_counts": null, "appointment_schedules": [], "gid": null}, {"departement": "06", "nom": "Unicare Läkarhuset Väster vårdcentralsfilial Jönköping (18+ LSS/assistans/vårdnära)", "url": "https://bokning.mittvaccin.se/klinik/1300", "location": {"longitude": 14.163034896807421, "latitude": 57.78214287016117, "city": "Jönköping", "cp": "00000"}, "metadata": {"address": "Barnarpsgatan 13, Jönköping", "business_hours": null, "phone_number": "010-242 84 00"}, "prochain_rdv": null, "plateforme": "MittVaccin", "type": "vaccination-center", "appointment_count": 0, "internal_id": "1300", "vaccine_type": null, "appointment_by_phone_only": false, "erreur": null, "last_scan_with_availabilities": null, "request_counts": null, "appointment_schedules": [], "gid": null}, {"departement": "06", "nom": "Wasa vårdcentral, Jönköping (18+ LSS/assistans/vårdnära)", "url": "https://bokning.mittvaccin.se/klinik/1518", "location": {"longitude": 14.536940894451295, "latitude": 58.381664894315385, "city": "Jönköping", "cp": "00000"}, "metadata": {"address": "Kungsängstorget 4, Kungsängen, Jönköping", "business_hours": null, "phone_number": "010-242 88 00"}, "prochain_rdv": null, "plateforme": "MittVaccin", "type": "vaccination-center", "appointment_count": 0, "internal_id": "1518", "vaccine_type": null, "appointment_by_phone_only": false, "erreur": null, "last_scan_with_availabilities": null, "request_counts": null, "appointment_schedules": [], "gid": null}, {"departement": "06", "nom": "Wasa vårdcentral, Jönköping (55+, 18-59 riskgrupp)", "url": "https://bokning.mittvaccin.se/klinik/1256", "location": {"longitude": 14.536940894451295, "latitude": 58.381664894315385, "city": "Jönköping", "cp": "00000"}, "metadata": {"address": "Kungsängstorget 4, Kungsängen, Jönköping", "business_hours": null, "phone_number": "010-242 88 00"}, "prochain_rdv": null, "plateforme": "MittVaccin", "type": "vaccination-center", "appointment_count": 0, "internal_id": "1256", "vaccine_type": null, "appointment_by_phone_only": false, "erreur": null, "last_scan_with_availabilities": null, "request_counts": null, "appointment_schedules": [], "gid": null}, {"departement": "06", "nom": "Wetterhälsan, Jönköping", "url": "https://bokning.mittvaccin.se/klinik/1313/bokning", "location": {"longitude": 14.202817404995903, "latitude": 57.76798763943383, "city": "Jönköping", "cp": "00000"}, "metadata": {"address": "A6: Batterigatan 9, Jönköping, Atollen: Lantmätargränd 59, Jönköping, Munksjöstaden: Barnarpsgatan 111, Jönköping", "business_hours": null, "phone_number": "010-242 66 77"}, "prochain_rdv": null, "plateforme": "MittVaccin", "type": "vaccination-center", "appointment_count": 0, "internal_id": "1313", "vaccine_type": null, "appointment_by_phone_only": false, "erreur": null, "last_scan_with_availabilities": null, "request_counts": null, "appointment_schedules": [], "gid": null}]}