{"version": 1, "last_updated": "2021-05-25 20:29:54.749319+02:00", "last_scrap": [], "centres_disponibles": [], "centres_indisponibles": [{"departement": "08", "nom": "Ankarsrums hälsocentral", "url": "https://bokning.mittvaccin.se/klinik/520/bokning", "location": {"longitude": 16.333555295363333, "latitude": 57.699563322789174, "city": "Västervik", "cp": "00000"}, "metadata": {"address": "Kungsvägen 40, Ankarsrum", "business_hours": null, "phone_number": "0490-504 00"}, "prochain_rdv": null, "plateforme": "MittVaccin", "type": "vaccination-center", "appointment_count": 0, "internal_id": "520", "vaccine_type": null, "appointment_by_phone_only": false, "erreur": null, "last_scan_with_availabilities": null, "request_counts": null, "appointment_schedules": [], "gid": null}, {"departement": "08", "nom": "Astrakanen Emmaboda läkarcentrum", "url": "https://bokning.mittvaccin.se/klinik/528/bokning", "location": {"longitude": 15.540197992566172, "latitude": 56.63137271007867, "city": "Emmaboda", "cp": "00000"}, "metadata": {"address": "Storgatan 15, Emmaboda", "business_hours": null, "phone_number": "0471-79 91 11"}, "prochain_rdv": null, "plateforme": "MittVaccin", "type": "vaccination-center", "appointment_count": 0, "internal_id": "528", "vaccine_type": null, "appointment_by_phone_only": false, "erreur": null, "last_scan_with_availabilities": null, "request_counts": null, "appointment_schedules": [], "gid": null}, {"departement": "08", "nom": "Astrakanen läkarcentrum Nybro", "url": "https://bokning.mittvaccin.se/klinik/526/bokning", "location": {"longitude": 15.912165806501925, "latitude": 56.74436875452638, "city": "Nybro", "cp": "00000"}, "metadata": {"address": "Tunnelgatan 8, Nybro", "business_hours": null, "phone_number": "0481-696 96"}, "prochain_rdv": null, "plateforme": "MittVaccin", "type": "vaccination-center", "appointment_count": 0, "internal_id": "526", "vaccine_type": null, "appointment_by_phone_only": false, "erreur": null, "last_scan_with_availabilities": null, "request_counts": null, "appointment_schedules": [], "gid": null}, {"departement": "08", "nom": "Blomstermåla hälsocentral", "url": "https://bokning.mittvaccin.se/klinik/521/bokning", "location": {"longitude": 16.33309445323957, "latitude": 56.980970711482186, "city": "Mönsterås", "cp": "00000"}, "metadata": {"address": "Stationsgatan 2, Blomstermåla", "business_hours": null, "phone_number": "0499-209 30"}, "prochain_rdv": null, "plateforme": "MittVaccin", "type": "vaccination-center", "appointment_count": 0, "internal_id": "521", "vaccine_type": null, "appointment_by_phone_only": false, "erreur": null, "last_scan_with_availabilities": null, "request_counts": null, "appointment_schedules": [], "gid": null}, {"departement": "08", "nom": "Blå Kustens hälsocentral", "url": "https://bokning.mittvaccin.se/klinik/488/bokning", "location": {"longitude": 16.422405091310075, "latitude": 57.26364466199942, "city": "Oskarshamn", "cp": "00000"}, "metadata": {"address": "Rösvägen 1, Oskarshamn", "business_hours": null, "phone_number": "0491-78 20 91"}, "prochain_rdv": null, "plateforme": "MittVaccin", "type": "vaccination-center", "appointment_count": 0, "internal_id": "488", "vaccine_type": null, "appointment_by_phone_only": false, "erreur": null, "last_scan_with_availabilities": null, "request_counts": null, "appointment_schedules": [], "gid": null}, {"departement": "08", "nom": "Borgholms hälsocentral", "url": "https://bokning.mittvaccin.se/klinik/490/bokning", "location": {"longitude": 16.6629988395173, "latitude": 56.88118038491814, "city": "Borgholm", "cp": "00000"}, "metadata": {"address": "Resedan 1, Borgholm", "business_hours": null, "phone_number": "0485-151 20"}, "prochain_rdv": null, "plateforme": "MittVaccin", "type": "vaccination-center", "appointment_count": 0, "internal_id": "490", "vaccine_type": null, "appointment_by_phone_only": false, "erreur": null, "last_scan_with_availabilities": null, "request_counts": null, "appointment_schedules": [], "gid": null}, {"departement": "08", "nom": "Cityläkarna i Nybro", "url": "https://bokning.mittvaccin.se/klinik/525/bokning", "location": {"longitude": 15.91011942888134, "latitude": 56.74309528394747, "city": "Nybro", "cp": "00000"}, "metadata": {"address": "Stora Nygatan 15, Nybro", "business_hours": null, "phone_number": "0481-49 07 00"}, "prochain_rdv": null, "plateforme": "MittVaccin", "type": "vaccination-center", "appointment_count": 0, "internal_id": "525", "vaccine_type": null, "appointment_by_phone_only": false, "erreur": null, "last_scan_with_availabilities": null, "request_counts": null, "appointment_schedules": [], "gid": null}, {"departement": "08", "nom": "Cityläkarna i Oskarshamn", "url": "https://bokning.mittvaccin.se/klinik/529/bokning", "location": {"longitude": 16.44876461698304, "latitude": 57.264168219301204, "city": "Oskarshamn", "cp": "00000"}, "metadata": {"address": "Stora Torget 3, Oskarshamn", "business_hours": null, "phone_number": "0491-708 00"}, "prochain_rdv": null, "plateforme": "MittVaccin", "type": "vaccination-center", "appointment_count": 0, "internal_id": "529", "vaccine_type": null, "appointment_by_phone_only": false, "erreur": null, "last_scan_with_availabilities": null, "request_counts": null, "appointment_schedules": [], "gid": null}, {"departement": "08", "nom": "Emmaboda hälsocentral", "url": "https://bokning.mittvaccin.se/klinik/506/bokning", "location": {"longitude": 15.536922734414482, "latitude": 56.63139260693963, "city": "Emmaboda", "cp": "00000"}, "metadata": {"address": "Rådhusgatan 12, Emmaboda", "business_hours": null, "phone_number": "0471-185 14"}, "prochain_rdv": null, "plateforme": "MittVaccin", "type": "vaccination-center", "appointment_count": 0, "internal_id": "506", "vaccine_type": null, "appointment_by_phone_only": false, "erreur": null, "last_scan_with_availabilities": null, "request_counts": null, "appointment_schedules": [], "gid": null}, {"departement": "08", "nom": "Gamleby hälsocentral", "url": "https://bokning.mittvaccin.se/klinik/516/bokning", "location": {"longitude": 16.39940361635937, "latitude": 57.89769680999943, "city": "Västervik", "cp": "00000"}, "metadata": {"address": "Centrum, Gamleby", "business_hours": null, "phone_number": "0493-130 00"}, "prochain_rdv": null, "plateforme": "MittVaccin", "type": "vaccination-center", "appointment_count": 0, "internal_id": "516", "vaccine_type": null, "appointment_by_phone_only": false, "erreur": null, "last_scan_with_availabilities": null, "request_counts": null, "appointment_schedules": [], "gid": null}, {"departement": "08", "nom": "Gripens hälsocentral", "url": "https://bokning.mittvaccin.se/klinik/495/bokning", "location": {"longitude": 16.443856103183354, "latitude": 57.26495648481284, "city": "Oskarshamn", "cp": "00000"}, "metadata": {"address": "Köpmangatan 14, Oskarshamn", "business_hours": null, "phone_number": "0491-78 22 23"}, "prochain_rdv": null, "plateforme": "MittVaccin", "type": "vaccination-center", "appointment_count": 0, "internal_id": "495", "vaccine_type": null, "appointment_by_phone_only": false, "erreur": null, "last_scan_with_availabilities": null, "request_counts": null, "appointment_schedules": [], "gid": null}, {"departement": "08", "nom": "Hultsfreds hälsocentral", "url": "https://bokning.mittvaccin.se/klinik/505/bokning", "location": {"longitude": 15.842211833484315, "latitude": 57.48814139634313, "city": "Hultsfred", "cp": "00000"}, "metadata": {"address": "Västra Långgatan 46, Hultsfred", "business_hours": null, "phone_number": "0495-155 02"}, "prochain_rdv": null, "plateforme": "MittVaccin", "type": "vaccination-center", "appointment_count": 0, "internal_id": "505", "vaccine_type": null, "appointment_by_phone_only": false, "erreur": null, "last_scan_with_availabilities": null, "request_counts": null, "appointment_schedules": [], "gid": null}, {"departement": "08", "nom": "Högsby hälsocentral", "url": "https://bokning.mittvaccin.se/klinik/519/bokning", "location": {"longitude": 16.025529740353928, "latitude": 57.171486143323655, "city": "Högsby", "cp": "00000"}, "metadata": {"address": "Dr Mobergers väg 6, Högsby", "business_hours": null, "phone_number": "0491-283 00"}, "prochain_rdv": null, "plateforme": "MittVaccin", "type": "vaccination-center", "appointment_count": 0, "internal_id": "519", "vaccine_type": null, "appointment_by_phone_only": false, "erreur": null, "last_scan_with_availabilities": null, "request_counts": null, "appointment_schedules": [], "gid": null}, {"departement": "08", "nom": "Kristinebergs hälsocentral", "url": "https://bokning.mittvaccin.se/klinik/513/bokning", "location": {"longitude": 16.466201540936055, "latitude": 57.25039279541824, "city": "Oskarshamn", "cp": "00000"}, "metadata": {"address": "Ingenjörsvägen 26, Oskarshamn", "business_hours": null, "phone_number": "0491-78 25 50"}, "prochain_rdv": null, "plateforme": "MittVaccin", "type": "vaccination-center", "appointment_count": 0, "internal_id": "513", "vaccine_type": null, "appointment_by_phone_only": false, "erreur": null, "last_scan_with_availabilities": null, "request_counts": null, "appointment_schedules": [], "gid": null}, {"departement": "08", "nom": "Lindsdals hälsocentral", "url": "https://bokning.mittvaccin.se/klinik/518/bokning", "location": {"longitude": 16.29539344333584, "latitude": 56.734330378096026, "city": "Kalmar", "cp": "00000"}, "metadata": {"address": "Förlösavägen 4, Kalmar", "business_hours": null, "phone_number": "0480-819 00"}, "prochain_rdv": null, "plateforme": "MittVaccin", "type": "vaccination-center", "appointment_count": 0, "internal_id": "518", "vaccine_type": null, "appointment_by_phone_only": false, "erreur": null, "last_scan_with_availabilities": null, "request_counts": null, "appointment_schedules": [], "gid": null}, {"departement": "08", "nom": "Ljungbyholms hälsocentral", "url": "https://bokning.mittvaccin.se/klinik/496/bokning", "location": {"longitude": 16.17286991496342, "latitude": 56.63362285475361, "city": "Kalmar", "cp": "00000"}, "metadata": {"address": "Tunnbindarevägen 4, Ljungbyholm", "business_hours": null, "phone_number": "0480-819 25"}, "prochain_rdv": null, "plateforme": "MittVaccin", "type": "vaccination-center", "appointment_count": 0, "internal_id": "496", "vaccine_type": null, "appointment_by_phone_only": false, "erreur": null, "last_scan_with_availabilities": null, "request_counts": null, "appointment_schedules": [], "gid": null}, {"departement": "08", "nom": "Läkarmottagning Dorrit Ruge", "url": "https://bokning.mittvaccin.se/klinik/510/bokning", "location": {"longitude": 15.58098163429231, "latitude": 57.32054440829297, "city": "Hultsfred", "cp": "00000"}, "metadata": {"address": "Södra Järnvägsgatan 5, Virserum", "business_hours": null, "phone_number": "0495-316 00"}, "prochain_rdv": null, "plateforme": "MittVaccin", "type": "vaccination-center", "appointment_count": 0, "internal_id": "510", "vaccine_type": null, "appointment_by_phone_only": false, "erreur": null, "last_scan_with_availabilities": null, "request_counts": null, "appointment_schedules": [], "gid": null}, {"departement": "08", "nom": "Löttorps hälsocentral", "url": "https://bokning.mittvaccin.se/klinik/494/bokning", "location": {"longitude": 16.98853903202339, "latitude": 57.165777189829655, "city": "Borgholm", "cp": "00000"}, "metadata": {"address": "Löttorpsvägen 63, Löttorp", "business_hours": null, "phone_number": "0485-151 20"}, "prochain_rdv": null, "plateforme": "MittVaccin", "type": "vaccination-center", "appointment_count": 0, "internal_id": "494", "vaccine_type": null, "appointment_by_phone_only": false, "erreur": null, "last_scan_with_availabilities": null, "request_counts": null, "appointment_schedules": [], "gid": null}, {"departement": "08", "nom": "Mönsterås hälsocentral", "url": "https://bokning.mittvaccin.se/klinik/492/bokning", "location": {"longitude": 16.436708819482035, "latitude": 57.035449569659825, "city": "Mönsterås", "cp": "00000"}, "metadata": {"address": "Allégatan 1, Mönsterås", "business_hours": null, "phone_number": "0499-489 30"}, "prochain_rdv": null, "plateforme": "MittVaccin", "type": "vaccination-center", "appointment_count": 0, "internal_id": "492", "vaccine_type": null, "appointment_by_phone_only": false, "erreur": null, "last_scan_with_availabilities": null, "request_counts": null, "appointment_schedules": [], "gid": null}, {"departement": "08", "nom": "Mörbylånga hälsocentral", "url": "https://bokning.mittvaccin.se/klinik/500/bokning", "location": {"longitude": 16.396170171292617, "latitude": 56.52222220802543, "city": "Mörbylånga", "cp": "00000"}, "metadata": {"address": "Rönningevägen 2, Mörbylånga", "business_hours": null, "phone_number": "0485-491 00"}, "prochain_rdv": null, "plateforme": "MittVaccin", "type": "vaccination-center", "appointment_count": 0, "internal_id": "500", "vaccine_type": null, "appointment_by_phone_only": false, "erreur": null, "last_scan_with_availabilities": null, "request_counts": null, "appointment_schedules": [], "gid": null}, {"departement": "08", "nom": "Mörlunda hälsocentral", "url": "https://bokning.mittvaccin.se/klinik/515/bokning", "location": {"longitude": 15.86393537513817, "latitude": 57.31718605791332, "city": "Hultsfred", "cp": "00000"}, "metadata": {"address": "Doktorsvägen 6, Mörlunda", "business_hours": null, "phone_number": "0495-236 40"}, "prochain_rdv": null, "plateforme": "MittVaccin", "type": "vaccination-center", "appointment_count": 0, "internal_id": "515", "vaccine_type": null, "appointment_by_phone_only": false, "erreur": null, "last_scan_with_availabilities": null, "request_counts": null, "appointment_schedules": [], "gid": null}, {"departement": "08", "nom": "Nybro hälsocentral", "url": "https://bokning.mittvaccin.se/klinik/499/bokning", "location": {"longitude": 15.91133031488841, "latitude": 56.74365104347946, "city": "Nybro", "cp": "00000"}, "metadata": {"address": "Tunnelgatan 6, Nybro", "business_hours": null, "phone_number": "0481-447 60"}, "prochain_rdv": null, "plateforme": "MittVaccin", "type": "vaccination-center", "appointment_count": 0, "internal_id": "499", "vaccine_type": null, "appointment_by_phone_only": false, "erreur": null, "last_scan_with_availabilities": null, "request_counts": null, "appointment_schedules": [], "gid": null}, {"departement": "08", "nom": "Smedby hälsocentral", "url": "https://bokning.mittvaccin.se/klinik/498/bokning", "location": {"longitude": 16.231942415356176, "latitude": 56.68159696651928, "city": "Kalmar", "cp": "00000"}, "metadata": {"address": "Ingelstorpsvägen 1, Kalmar", "business_hours": null, "phone_number": "0480-818 70"}, "prochain_rdv": null, "plateforme": "MittVaccin", "type": "vaccination-center", "appointment_count": 0, "internal_id": "498", "vaccine_type": null, "appointment_by_phone_only": false, "erreur": null, "last_scan_with_availabilities": null, "request_counts": null, "appointment_schedules": [], "gid": null}, {"departement": "08", "nom": "Torsås hälsocentral", "url": "https://bokning.mittvaccin.se/klinik/493/bokning", "location": {"longitude": 15.996726089216628, "latitude": 56.4113261043122, "city": "Torsås", "cp": "00000"}, "metadata": {"address": "Badhusgatan 20, Torsås", "business_hours": null, "phone_number": "0486-412 30"}, "prochain_rdv": null, "plateforme": "MittVaccin", "type": "vaccination-center", "appointment_count": 0, "internal_id": "493", "vaccine_type": null, "appointment_by_phone_only": false, "erreur": null, "last_scan_with_availabilities": null, "request_counts": null, "appointment_schedules": [], "gid": null}, {"departement": "08", "nom": "Vaccinationscentral covid-19 Borgholm", "url": "https://bokning.mittvaccin.se/klinik/2056/bokning", "location": {"longitude": 16.64780260606582, "latitude": 56.87868831899666, "city": "Borgholm", "cp": "00000"}, "metadata": {"address": "Villagatan 4, Borgholm", "business_hours": null, "phone_number": "0480-844 44"}, "prochain_rdv": null, "plateforme": "MittVaccin", "type": "vaccination-center", "appointment_count": 0, "internal_id": "2056", "vaccine_type": null, "appointment_by_phone_only": false, "erreur": null, "last_scan_with_availabilities": null, "request_counts": null, "appointment_schedules": [], "gid": null}, {"departement": "08", "nom": "Vaccinationscentral covid-19 Kalmar", "url": "https://bokning.mittvaccin.se/klinik/1546/bokning", "location": {"longitude": 16.35640759555987, "latitude": 56.66417229353723, "city": "Kalmar", "cp": "00000"}, "metadata": {"address": "Tullslätten 4, Kalmar", "business_hours": null, "phone_number": "0480-844 44"}, "prochain_rdv": null, "plateforme": "MittVaccin", "type": "vaccination-center", "appointment_count": 0, "internal_id": "1546", "vaccine_type": null, "appointment_by_phone_only": false, "erreur": null, "last_scan_with_availabilities": null, "request_counts": null, "appointment_schedules": [], "gid": null}, {"departement": "08", "nom": "Vaccinationscentral covid-19 Oskarshamn", "url": "https://bokning.mittvaccin.se/klinik/2053/bokning", "location": {"longitude": 16.433293539951787, "latitude": 57.26561125193819, "city": "Oskarshamn", "cp": "00000"}, "metadata": {"address": "Döderhultsvägen 26-28, Oskarshamn", "business_hours": null, "phone_number": "0480-844 44"}, "prochain_rdv": null, "plateforme": "MittVaccin", "type": "vaccination-center", "appointment_count": 0, "internal_id": "2053", "vaccine_type": null, "appointment_by_phone_only": false, "erreur": null, "last_scan_with_availabilities": null, "request_counts": null, "appointment_schedules": [], "gid": null}, {"departement": "08", "nom": "Vaccinationscentral covid-19 Västervik", "url": "https://bokning.mittvaccin.se/klinik/1547/bokning", "location": {"longitude": 16.63873172343222, "latitude": 57.757591327850086, "city": "Västervik", "cp": "00000"}, "metadata": {"address": "Spötorget 1, Västervik", "business_hours": null, "phone_number": "0480-844 44"}, "prochain_rdv": null, "plateforme": "MittVaccin", "type": "vaccination-center", "appointment_count": 0, "internal_id": "1547", "vaccine_type": null, "appointment_by_phone_only": false, "erreur": null, "last_scan_with_availabilities": null, "request_counts": null, "appointment_schedules": [], "gid": null}, {"departement": "08", "nom": "Vimmerby hälsocentral", "url": "https://bokning.mittvaccin.se/klinik/491/bokning", "location": {"longitude": 15.858660065659615, "latitude": 57.668227743684724, "city": "Vimmerby", "cp": "00000"}, "metadata": {"address": "Drottninggatan 22, Vimmerby", "business_hours": null, "phone_number": "0492-176 00"}, "prochain_rdv": null, "plateforme": "MittVaccin", "type": "vaccination-center", "appointment_count": 0, "internal_id": "491", "vaccine_type": null, "appointment_by_phone_only": false, "erreur": null, "last_scan_with_availabilities": null, "request_counts": null, "appointment_schedules": [], "gid": null}, {"departement": "08", "nom": "Virserums läkarhus", "url": "https://bokning.mittvaccin.se/klinik/508/bokning", "location": {"longitude": 15.580898371315072, "latitude": 57.32058915623204, "city": "Hultsfred", "cp": "00000"}, "metadata": {"address": "Södra Järnvägsgatan 5, Virserum", "business_hours": null, "phone_number": "0495-310 05"}, "prochain_rdv": null, "plateforme": "MittVaccin", "type": "vaccination-center", "appointment_count": 0, "internal_id": "508", "vaccine_type": null, "appointment_by_phone_only": false, "erreur": null, "last_scan_with_availabilities": null, "request_counts": null, "appointment_schedules": [], "gid": null}]}