{"version": 1, "last_updated": "2021-05-25 13:46:03.114573+02:00", "last_scrap": [], "centres_disponibles": [{"departement": "18", "nom": "Vaccinationsmottagningen Covid 19 Karlskoga", "url": "https://bokning.mittvaccin.se/klinik/1349/bokning", "location": {"longitude": 14.492074346216494, "latitude": 59.31389758566554, "city": "Karlskoga", "cp": "00000"}, "metadata": {"address": "Skrantahöjdsvägen 42, hus 10, Karlskoga", "business_hours": null, "phone_number": "019-602 80 00"}, "prochain_rdv": "2021-05-27 14:50:00", "plateforme": "MittVaccin", "type": "vaccination-center", "appointment_count": 53, "internal_id": "1349", "vaccine_type": null, "appointment_by_phone_only": false, "erreur": null, "last_scan_with_availabilities": null, "request_counts": null, "appointment_schedules": [], "gid": null}, {"departement": "18", "nom": "Vaccinationsmottagningen Covid 19 Lindesberg", "url": "https://bokning.mittvaccin.se/klinik/1348/bokning", "location": {"longitude": 15.22503917660434, "latitude": 59.59984521812295, "city": "Lindesberg", "cp": "00000"}, "metadata": {"address": "Banvägen 28, Lindesberg", "business_hours": null, "phone_number": "019-602 80 00"}, "prochain_rdv": "2021-05-27 08:10:00", "plateforme": "MittVaccin", "type": "vaccination-center", "appointment_count": 45, "internal_id": "1348", "vaccine_type": null, "appointment_by_phone_only": false, "erreur": null, "last_scan_with_availabilities": null, "request_counts": null, "appointment_schedules": [], "gid": null}, {"departement": "18", "nom": "Vaccinationsmottagningen Covid 19 Örebro Boglundsängen", "url": "https://bokning.mittvaccin.se/klinik/1351/bokning", "location": {"longitude": 15.198212746374612, "latitude": 59.296286646575545, "city": "Örebro", "cp": "00000"}, "metadata": {"address": "Prologgatan 3, Örebro", "business_hours": null, "phone_number": "019-602 80 00"}, "prochain_rdv": "2021-05-26 13:35:00", "plateforme": "MittVaccin", "type": "vaccination-center", "appointment_count": 13, "internal_id": "1351", "vaccine_type": null, "appointment_by_phone_only": false, "erreur": null, "last_scan_with_availabilities": null, "request_counts": null, "appointment_schedules": [], "gid": null}, {"departement": "18", "nom": "Vaccinationsmottagningen Covid 19 Örebro Conventum", "url": "https://bokning.mittvaccin.se/klinik/1352/bokning", "location": {"longitude": 15.205639056496208, "latitude": 59.26924693383278, "city": "Örebro", "cp": "00000"}, "metadata": {"address": "Conventum Arena, Fabriksgatan 26-28, Örebro", "business_hours": null, "phone_number": "019-602 80 00"}, "prochain_rdv": "2021-05-27 12:48:00", "plateforme": "MittVaccin", "type": "vaccination-center", "appointment_count": 29, "internal_id": "1352", "vaccine_type": null, "appointment_by_phone_only": false, "erreur": null, "last_scan_with_availabilities": null, "request_counts": null, "appointment_schedules": [], "gid": null}], "centres_indisponibles": [{"departement": "18", "nom": "Vaccinationsmottagningen Covid 19 Hallsberg", "url": "https://bokning.mittvaccin.se/klinik/1350/bokning", "location": {"longitude": 15.098423102618073, "latitude": 59.06695698446932, "city": "Hallsberg", "cp": "00000"}, "metadata": {"address": "Esplanaden 1, Hallsberg", "business_hours": null, "phone_number": "019-602 80 00"}, "prochain_rdv": null, "plateforme": "MittVaccin", "type": "vaccination-center", "appointment_count": 0, "internal_id": "1350", "vaccine_type": null, "appointment_by_phone_only": false, "erreur": null, "last_scan_with_availabilities": null, "request_counts": null, "appointment_schedules": [], "gid": null}]}