{"version": 1, "last_updated": "2021-05-25 23:31:52.385331+02:00", "last_scrap": [], "centres_disponibles": [], "centres_indisponibles": [{"departement": "24", "nom": "Anderstorps hälsocentral", "url": "https://www.1177.se/hitta-vard/kontaktkort/Anderstorps-halsocentral/", "location": {"longitude": 20.988785517005645, "latitude": 64.74597319664163, "city": "Skellefteå", "cp": "00000"}, "metadata": {"address": "Anderstorpsleden 1", "business_hours": null, "phone_number": "090-785 91 14"}, "prochain_rdv": null, "plateforme": "1177", "type": "vaccination-center", "appointment_count": 0, "internal_id": null, "vaccine_type": null, "appointment_by_phone_only": true, "erreur": null, "last_scan_with_availabilities": null, "request_counts": null, "appointment_schedules": [], "gid": null}, {"departement": "24", "nom": "Backens hälsocentral", "url": "https://www.1177.se/hitta-vard/kontaktkort/Backens-halsocentral/", "location": {"longitude": 20.163080811099466, "latitude": 63.83722988837268, "city": "Umeå", "cp": "00000"}, "metadata": {"address": "Manusgränd 3", "business_hours": null, "phone_number": "090-785 44 43"}, "prochain_rdv": null, "plateforme": "1177", "type": "vaccination-center", "appointment_count": 0, "internal_id": null, "vaccine_type": null, "appointment_by_phone_only": true, "erreur": null, "last_scan_with_availabilities": null, "request_counts": null, "appointment_schedules": [], "gid": null}, {"departement": "24", "nom": "Bjurholms hälsocentral", "url": "https://www.1177.se/hitta-vard/kontaktkort/Bjurholms-halsocentral/", "location": {"longitude": 19.20680770966098, "latitude": 63.92928599751182, "city": "Bjurholm", "cp": "00000"}, "metadata": {"address": "Storgatan 16", "business_hours": null, "phone_number": "090-785 44 41"}, "prochain_rdv": null, "plateforme": "1177", "type": "vaccination-center", "appointment_count": 0, "internal_id": null, "vaccine_type": null, "appointment_by_phone_only": true, "erreur": null, "last_scan_with_availabilities": null, "request_counts": null, "appointment_schedules": [], "gid": null}, {"departement": "24", "nom": "Bolidens hälsocentral", "url": "https://www.1177.se/hitta-vard/kontaktkort/Bolidens-halsocentral/", "location": {"longitude": 20.383782657759944, "latitude": 64.86139958738863, "city": "Skellefteå", "cp": "93631"}, "metadata": {"address": "Ringen 76, 93631 Boliden", "business_hours": null, "phone_number": "090-785 91 23"}, "prochain_rdv": null, "plateforme": "1177", "type": "vaccination-center", "appointment_count": 0, "internal_id": null, "vaccine_type": null, "appointment_by_phone_only": true, "erreur": null, "last_scan_with_availabilities": null, "request_counts": null, "appointment_schedules": [], "gid": null}, {"departement": "24", "nom": "Bureå hälsocentral", "url": "https://www.1177.se/hitta-vard/kontaktkort/Burea-halsocentral/", "location": {"longitude": 21.19865212175603, "latitude": 64.62215649223296, "city": "Skellefteå", "cp": "00000"}, "metadata": {"address": "Nygatan 9", "business_hours": null, "phone_number": "090-785 91 13"}, "prochain_rdv": null, "plateforme": "1177", "type": "vaccination-center", "appointment_count": 0, "internal_id": null, "vaccine_type": null, "appointment_by_phone_only": true, "erreur": null, "last_scan_with_availabilities": null, "request_counts": null, "appointment_schedules": [], "gid": null}, {"departement": "24", "nom": "Burträsk hälsocentral", "url": "https://www.1177.se/hitta-vard/kontaktkort/Burtrask-halsocentral/", "location": {"longitude": 20.65436866394136, "latitude": 64.5175640324598, "city": "Skellefteå", "cp": "00000"}, "metadata": {"address": "Björnåkersgatan 10", "business_hours": null, "phone_number": "090-785 91 73"}, "prochain_rdv": null, "plateforme": "1177", "type": "vaccination-center", "appointment_count": 0, "internal_id": null, "vaccine_type": null, "appointment_by_phone_only": true, "erreur": null, "last_scan_with_availabilities": null, "request_counts": null, "appointment_schedules": [], "gid": null}, {"departement": "24", "nom": "Byske hälsocentral", "url": "https://www.1177.se/hitta-vard/kontaktkort/Byske-halsocentral/", "location": {"longitude": 21.20716665139364, "latitude": 64.950590882984, "city": "Skellefteå", "cp": "00000"}, "metadata": {"address": "Ringvägen 8", "business_hours": null, "phone_number": "090-785 91 18"}, "prochain_rdv": null, "plateforme": "1177", "type": "vaccination-center", "appointment_count": 0, "internal_id": null, "vaccine_type": null, "appointment_by_phone_only": true, "erreur": null, "last_scan_with_availabilities": null, "request_counts": null, "appointment_schedules": [], "gid": null}, {"departement": "24", "nom": "Capio hälsocentral Dragonen", "url": "https://www.1177.se/hitta-vard/kontaktkort/Capio-halsocentral-Dragonen/", "location": {"longitude": 20.25250669887509, "latitude": 63.83275864868876, "city": "Umeå", "cp": "00000"}, "metadata": {"address": "Ridvägen 12", "business_hours": null, "phone_number": "090-785 91 48"}, "prochain_rdv": null, "plateforme": "1177", "type": "vaccination-center", "appointment_count": 0, "internal_id": null, "vaccine_type": null, "appointment_by_phone_only": true, "erreur": null, "last_scan_with_availabilities": null, "request_counts": null, "appointment_schedules": [], "gid": null}, {"departement": "24", "nom": "Central vaccinationsmottagning Skellefteå", "url": "https://www.1177.se/hitta-vard/kontaktkort/Central-vaccinationsmottagning-Skelleftea/", "location": {"longitude": 20.967125563848267, "latitude": 64.76118182308069, "city": "Skellefteå", "cp": "00000"}, "metadata": {"address": "Skellefteå Kraft Arena, Mossgatan 27", "business_hours": null}, "prochain_rdv": null, "plateforme": "1177", "type": "vaccination-center", "appointment_count": 0, "internal_id": null, "vaccine_type": null, "appointment_by_phone_only": true, "erreur": null, "last_scan_with_availabilities": null, "request_counts": null, "appointment_schedules": [], "gid": null}, {"departement": "24", "nom": "Central vaccinationsmottagning Umeå", "url": "https://www.1177.se/hitta-vard/kontaktkort/Central-vaccinationsmottagning-Umea/", "location": {"longitude": 20.24274041731457, "latitude": 63.832906497142446, "city": "Umeå", "cp": "00000"}, "metadata": {"address": "Nolia, Signalvägen 3, Umeå", "business_hours": null}, "prochain_rdv": null, "plateforme": "1177", "type": "vaccination-center", "appointment_count": 0, "internal_id": null, "vaccine_type": null, "appointment_by_phone_only": true, "erreur": null, "last_scan_with_availabilities": null, "request_counts": null, "appointment_schedules": [], "gid": null}, {"departement": "24", "nom": "Citymottagningen hälsocentral", "url": "https://www.1177.se/hitta-vard/kontaktkort/Citymottagningen-halsocentral/", "location": {"longitude": 20.26427806385064, "latitude": 63.827668127510485, "city": "Umeå", "cp": "00000"}, "metadata": {"address": "Nygatan 19B", "business_hours": null, "phone_number": "090-785 93 21"}, "prochain_rdv": null, "plateforme": "1177", "type": "vaccination-center", "appointment_count": 0, "internal_id": null, "vaccine_type": null, "appointment_by_phone_only": true, "erreur": null, "last_scan_with_availabilities": null, "request_counts": null, "appointment_schedules": [], "gid": null}, {"departement": "24", "nom": "Dorotea sjukstuga hälsocentral", "url": "https://www.1177.se/hitta-vard/kontaktkort/Dorotea-sjukstuga-halsocentral/", "location": {"longitude": 16.418131571995104, "latitude": 64.25937500733974, "city": "Dorotea", "cp": "00000"}, "metadata": {"address": "Nygatan 19", "business_hours": null, "phone_number": "090-785 91 75"}, "prochain_rdv": null, "plateforme": "1177", "type": "vaccination-center", "appointment_count": 0, "internal_id": null, "vaccine_type": null, "appointment_by_phone_only": true, "erreur": null, "last_scan_with_availabilities": null, "request_counts": null, "appointment_schedules": [], "gid": null}, {"departement": "24", "nom": "Erikslids hälsocentral", "url": "https://www.1177.se/hitta-vard/kontaktkort/Erikslids-halsocentral/", "location": {"longitude": 20.954013870665275, "latitude": 64.7609101382686, "city": "Skellefteå", "cp": "00000"}, "metadata": {"address": "Annastigen 8", "business_hours": null, "phone_number": "090-785 91 10"}, "prochain_rdv": null, "plateforme": "1177", "type": "vaccination-center", "appointment_count": 0, "internal_id": null, "vaccine_type": null, "appointment_by_phone_only": true, "erreur": null, "last_scan_with_availabilities": null, "request_counts": null, "appointment_schedules": [], "gid": null}, {"departement": "24", "nom": "Ersboda hälsocentral", "url": "https://www.1177.se/hitta-vard/kontaktkort/Ersboda-halsocentral/", "location": {"longitude": 20.317044179291425, "latitude": 63.85660370244311, "city": "Umeå", "cp": "00000"}, "metadata": {"address": "Hälsogränd 3, Umeå", "business_hours": null, "phone_number": "090-785 44 57"}, "prochain_rdv": null, "plateforme": "1177", "type": "vaccination-center", "appointment_count": 0, "internal_id": null, "vaccine_type": null, "appointment_by_phone_only": true, "erreur": null, "last_scan_with_availabilities": null, "request_counts": null, "appointment_schedules": [], "gid": null}, {"departement": "24", "nom": "Heimdalls hälsocentral", "url": "https://www.1177.se/hitta-vard/kontaktkort/Heimdalls-halsocentral-1/", "location": {"longitude": 20.948482561952545, "latitude": 64.75145347569664, "city": "Skellefteå", "cp": "00000"}, "metadata": {"address": "Köpmangatan 15, Skellefteå", "business_hours": null, "phone_number": "090-785 91 11"}, "prochain_rdv": null, "plateforme": "1177", "type": "vaccination-center", "appointment_count": 0, "internal_id": null, "vaccine_type": null, "appointment_by_phone_only": true, "erreur": null, "last_scan_with_availabilities": null, "request_counts": null, "appointment_schedules": [], "gid": null}, {"departement": "24", "nom": "Holmsunds hälsocentral", "url": "https://www.1177.se/hitta-vard/kontaktkort/Holmsunds-halsocentral/", "location": {"longitude": 20.36503865828701, "latitude": 63.70732398241559, "city": "Umeå", "cp": "00000"}, "metadata": {"address": "Himmelska Fridens Torg 7", "business_hours": null, "phone_number": "090-785 91 03"}, "prochain_rdv": null, "plateforme": "1177", "type": "vaccination-center", "appointment_count": 0, "internal_id": null, "vaccine_type": null, "appointment_by_phone_only": true, "erreur": null, "last_scan_with_availabilities": null, "request_counts": null, "appointment_schedules": [], "gid": null}, {"departement": "24", "nom": "Husläkarna Hälsocentral i Umeå", "url": "https://www.1177.se/hitta-vard/kontaktkort/Huslakarna-Halsocentral-i-Umea/", "location": {"longitude": 20.24726121243241, "latitude": 63.82724933424847, "city": "Umeå", "cp": "00000"}, "metadata": {"address": "Storgatan 28 B", "business_hours": null, "phone_number": "090-785 93 88"}, "prochain_rdv": null, "plateforme": "1177", "type": "vaccination-center", "appointment_count": 0, "internal_id": null, "vaccine_type": null, "appointment_by_phone_only": true, "erreur": null, "last_scan_with_availabilities": null, "request_counts": null, "appointment_schedules": [], "gid": null}, {"departement": "24", "nom": "Hörnefors hälsocentral", "url": "https://www.1177.se/hitta-vard/kontaktkort/Hornefors-halsocentral/", "location": {"longitude": 19.90918239708997, "latitude": 63.624337480884165, "city": "Umeå", "cp": "00000"}, "metadata": {"address": "Bruksgatan 4", "business_hours": null, "phone_number": "090-785 91 05"}, "prochain_rdv": null, "plateforme": "1177", "type": "vaccination-center", "appointment_count": 0, "internal_id": null, "vaccine_type": null, "appointment_by_phone_only": true, "erreur": null, "last_scan_with_availabilities": null, "request_counts": null, "appointment_schedules": [], "gid": null}, {"departement": "24", "nom": "Kåge hälsocentral", "url": "https://www.1177.se/hitta-vard/kontaktkort/Kage-halsocentral/", "location": {"longitude": 20.983612223908484, "latitude": 64.83156836940908, "city": "Skellefteå", "cp": "00000"}, "metadata": {"address": "Nygatan 13", "business_hours": null, "phone_number": "090-785 93 57"}, "prochain_rdv": null, "plateforme": "1177", "type": "vaccination-center", "appointment_count": 0, "internal_id": null, "vaccine_type": null, "appointment_by_phone_only": true, "erreur": null, "last_scan_with_availabilities": null, "request_counts": null, "appointment_schedules": [], "gid": null}, {"departement": "24", "nom": "Lövångers hälsocentral", "url": "https://www.1177.se/hitta-vard/kontaktkort/Lovangers-halsocentral/", "location": {"longitude": 21.311303133544506, "latitude": 64.36908137825338, "city": "Skellefteå", "cp": "00000"}, "metadata": {"address": "Skogstorpsvägen 12", "business_hours": null, "phone_number": "090-785 91 20"}, "prochain_rdv": null, "plateforme": "1177", "type": "vaccination-center", "appointment_count": 0, "internal_id": null, "vaccine_type": null, "appointment_by_phone_only": true, "erreur": null, "last_scan_with_availabilities": null, "request_counts": null, "appointment_schedules": [], "gid": null}, {"departement": "24", "nom": "Malå sjukstuga hälsocentral", "url": "https://www.1177.se/hitta-vard/kontaktkort/Mala-sjukstuga-halsocentral/", "location": {"longitude": 18.756251410101154, "latitude": 65.17531659490669, "city": "Malå", "cp": "00000"}, "metadata": {"address": "Storgatan 2", "business_hours": null, "phone_number": "090-785 91 19"}, "prochain_rdv": null, "plateforme": "1177", "type": "vaccination-center", "appointment_count": 0, "internal_id": null, "vaccine_type": null, "appointment_by_phone_only": true, "erreur": null, "last_scan_with_availabilities": null, "request_counts": null, "appointment_schedules": [], "gid": null}, {"departement": "24", "nom": "Mariehems hälsocentral", "url": "https://www.1177.se/hitta-vard/kontaktkort/Mariehems-halsocentral/", "location": {"longitude": 20.32802298329659, "latitude": 63.838617372997795, "city": "Umeå", "cp": "00000"}, "metadata": {"address": "Morkullevägen 9", "business_hours": null, "phone_number": "090-785 44 44"}, "prochain_rdv": null, "plateforme": "1177", "type": "vaccination-center", "appointment_count": 0, "internal_id": null, "vaccine_type": null, "appointment_by_phone_only": true, "erreur": null, "last_scan_with_availabilities": null, "request_counts": null, "appointment_schedules": [], "gid": null}, {"departement": "24", "nom": "Medicinkonsulten AB", "url": "https://www.1177.se/hitta-vard/kontaktkort/Medicinkonsulten-AB/", "location": {"longitude": 18.674387839138266, "latitude": 64.59246225123054, "city": "Lycksele", "cp": "00000"}, "metadata": {"address": "Skolgatan 8", "business_hours": null, "phone_number": "090-785 93 80"}, "prochain_rdv": null, "plateforme": "1177", "type": "vaccination-center", "appointment_count": 0, "internal_id": null, "vaccine_type": null, "appointment_by_phone_only": true, "erreur": null, "last_scan_with_availabilities": null, "request_counts": null, "appointment_schedules": [], "gid": null}, {"departement": "24", "nom": "Morö Backe hälsocentral", "url": "https://www.1177.se/hitta-vard/kontaktkort/Moro-Backe-halsocentral-1/", "location": {"longitude": 21.026742481432354, "latitude": 64.75336170983184, "city": "Skellefteå", "cp": "00000"}, "metadata": {"address": "Höjdgatan 14, Skellefteå", "business_hours": null, "phone_number": "090-785 91 15"}, "prochain_rdv": null, "plateforme": "1177", "type": "vaccination-center", "appointment_count": 0, "internal_id": null, "vaccine_type": null, "appointment_by_phone_only": true, "erreur": null, "last_scan_with_availabilities": null, "request_counts": null, "appointment_schedules": [], "gid": null}, {"departement": "24", "nom": "Nordmalings hälsocentral", "url": "https://www.1177.se/hitta-vard/kontaktkort/Nordmalings-halsocentral/", "location": {"longitude": 19.50699285552043, "latitude": 63.56314110015042, "city": "Nordmaling", "cp": "00000"}, "metadata": {"address": "Hemvägen 12", "business_hours": null, "phone_number": "090-785 91 04"}, "prochain_rdv": null, "plateforme": "1177", "type": "vaccination-center", "appointment_count": 0, "internal_id": null, "vaccine_type": null, "appointment_by_phone_only": true, "erreur": null, "last_scan_with_availabilities": null, "request_counts": null, "appointment_schedules": [], "gid": null}, {"departement": "24", "nom": "Norrlandskliniken hälsocentral", "url": "https://www.1177.se/hitta-vard/kontaktkort/Norrlandskliniken-halsocentral/", "location": {"longitude": 20.321609843551045, "latitude": 63.804754920960285, "city": "Umeå", "cp": "00000"}, "metadata": {"address": "Glimmervägen 5 E", "business_hours": null, "phone_number": "090-785 93 22"}, "prochain_rdv": null, "plateforme": "1177", "type": "vaccination-center", "appointment_count": 0, "internal_id": null, "vaccine_type": null, "appointment_by_phone_only": true, "erreur": null, "last_scan_with_availabilities": null, "request_counts": null, "appointment_schedules": [], "gid": null}, {"departement": "24", "nom": "Norsjö hälsocentral", "url": "https://www.1177.se/hitta-vard/kontaktkort/Norsjo-halsocentral/", "location": {"longitude": 19.492159861085895, "latitude": 64.90894017118802, "city": "Norsjö", "cp": "00000"}, "metadata": {"address": "Storgatan 33", "business_hours": null, "phone_number": "090-785 91 16"}, "prochain_rdv": null, "plateforme": "1177", "type": "vaccination-center", "appointment_count": 0, "internal_id": null, "vaccine_type": null, "appointment_by_phone_only": true, "erreur": null, "last_scan_with_availabilities": null, "request_counts": null, "appointment_schedules": [], "gid": null}, {"departement": "24", "nom": "Robertfors - Pingstkyrkan", "url": "https://www.vaccina.se/covidvaccin/vasterbotten/tidsbokning/#/service", "location": {"longitude": 20.852139, "latitude": 64.1936739, "city": "Robertfors", "cp": "91531"}, "metadata": {"address": "Yttre Ringvägen 28, 915 31 Robertsfors", "business_hours": null, "phone_number": ""}, "prochain_rdv": null, "plateforme": "Vaccina", "type": "vaccination-center", "appointment_count": 0, "internal_id": 30615, "vaccine_type": null, "appointment_by_phone_only": false, "erreur": null, "last_scan_with_availabilities": null, "request_counts": null, "appointment_schedules": [], "gid": null}, {"departement": "24", "nom": "Robertsfors hälsocentral", "url": "https://www.1177.se/hitta-vard/kontaktkort/Robertsfors-halsocentral/", "location": {"longitude": 20.844570681764722, "latitude": 64.1927516846582, "city": "Robertsfors", "cp": "00000"}, "metadata": {"address": "Fabriksvägen 3", "business_hours": null, "phone_number": "090-785 91 21"}, "prochain_rdv": null, "plateforme": "1177", "type": "vaccination-center", "appointment_count": 0, "internal_id": null, "vaccine_type": null, "appointment_by_phone_only": true, "erreur": null, "last_scan_with_availabilities": null, "request_counts": null, "appointment_schedules": [], "gid": null}, {"departement": "24", "nom": "Skellefteå -", "url": "https://www.vaccina.se/covidvaccin/vasterbotten/tidsbokning/#/service", "location": {"longitude": 20.9456521, "latitude": 64.7500814, "city": "Skellefteå", "cp": "93131"}, "metadata": {"address": "Nygatan 50, 931 31 Skellefteå", "business_hours": null, "phone_number": ""}, "prochain_rdv": null, "plateforme": "Vaccina", "type": "vaccination-center", "appointment_count": 0, "internal_id": 30617, "vaccine_type": null, "appointment_by_phone_only": false, "erreur": null, "last_scan_with_availabilities": null, "request_counts": null, "appointment_schedules": [], "gid": null}, {"departement": "24", "nom": "Sorsele sjukstuga hälsocentral", "url": "https://www.1177.se/hitta-vard/kontaktkort/Sorsele-sjukstuga-halsocentral/", "location": {"longitude": 17.540891071616244, "latitude": 65.53741523279075, "city": "Sorsele", "cp": "00000"}, "metadata": {"address": "Burevägen 13", "business_hours": null, "phone_number": "090-785 91 71"}, "prochain_rdv": null, "plateforme": "1177", "type": "vaccination-center", "appointment_count": 0, "internal_id": null, "vaccine_type": null, "appointment_by_phone_only": true, "erreur": null, "last_scan_with_availabilities": null, "request_counts": null, "appointment_schedules": [], "gid": null}, {"departement": "24", "nom": "Stenbergska hälsocentral", "url": "https://www.1177.se/hitta-vard/kontaktkort/Stenbergska-halsocentral/", "location": {"longitude": 18.673473259388757, "latitude": 64.59984994028584, "city": "Lycksele", "cp": "00000"}, "metadata": {"address": "Johan Skyttes väg 6", "business_hours": null, "phone_number": "090-785 44 48"}, "prochain_rdv": null, "plateforme": "1177", "type": "vaccination-center", "appointment_count": 0, "internal_id": null, "vaccine_type": null, "appointment_by_phone_only": true, "erreur": null, "last_scan_with_availabilities": null, "request_counts": null, "appointment_schedules": [], "gid": null}, {"departement": "24", "nom": "Storuman - Folkets Hus", "url": "https://www.vaccina.se/covidvaccin/vasterbotten/tidsbokning/#/service", "location": {"longitude": 17.1150976, "latitude": 65.1025074, "city": "Storuman", "cp": "92331"}, "metadata": {"address": "Blå vägen 256, 923 31 Storuman", "business_hours": null, "phone_number": ""}, "prochain_rdv": null, "plateforme": "Vaccina", "type": "vaccination-center", "appointment_count": 0, "internal_id": 30616, "vaccine_type": null, "appointment_by_phone_only": false, "erreur": null, "last_scan_with_availabilities": null, "request_counts": null, "appointment_schedules": [], "gid": null}, {"departement": "24", "nom": "Storumans sjukstuga hälsocentral", "url": "https://www.1177.se/hitta-vard/kontaktkort/Storumans-sjukstuga-halsocentral/", "location": {"longitude": 17.121804197752063, "latitude": 65.09670707643072, "city": "Storuman", "cp": "00000"}, "metadata": {"address": "Backvägen 2", "business_hours": null, "phone_number": "090-785 44 73"}, "prochain_rdv": null, "plateforme": "1177", "type": "vaccination-center", "appointment_count": 0, "internal_id": null, "vaccine_type": null, "appointment_by_phone_only": true, "erreur": null, "last_scan_with_availabilities": null, "request_counts": null, "appointment_schedules": [], "gid": null}, {"departement": "24", "nom": "Sävar hälsocentral", "url": "https://www.1177.se/hitta-vard/kontaktkort/Savar-halsocentral/", "location": {"longitude": 20.551555586055475, "latitude": 63.89843626107976, "city": "Umeå", "cp": "00000"}, "metadata": {"address": "Kungsvägen 8A", "business_hours": null, "phone_number": "090-785 44 47"}, "prochain_rdv": null, "plateforme": "1177", "type": "vaccination-center", "appointment_count": 0, "internal_id": null, "vaccine_type": null, "appointment_by_phone_only": true, "erreur": null, "last_scan_with_availabilities": null, "request_counts": null, "appointment_schedules": [], "gid": null}, {"departement": "24", "nom": "Tegs hälsocentral", "url": "https://www.1177.se/hitta-vard/kontaktkort/Tegs-halsocentral/", "location": {"longitude": 20.253714356041783, "latitude": 63.820570789783865, "city": "Umeå", "cp": "00000"}, "metadata": {"address": "Tegsplan 2C", "business_hours": null, "phone_number": "090-785 44 56"}, "prochain_rdv": null, "plateforme": "1177", "type": "vaccination-center", "appointment_count": 0, "internal_id": null, "vaccine_type": null, "appointment_by_phone_only": true, "erreur": null, "last_scan_with_availabilities": null, "request_counts": null, "appointment_schedules": [], "gid": null}, {"departement": "24", "nom": "Tärnaby sjukstuga hälsocentral", "url": "https://www.1177.se/hitta-vard/kontaktkort/Tarnaby-sjukstuga-halsocentral/", "location": {"longitude": 15.31339230368373, "latitude": 65.71588725571208, "city": "Storuman", "cp": "00000"}, "metadata": {"address": "Granvägen 7, Tärnaby", "business_hours": null, "phone_number": "090-785 44 70"}, "prochain_rdv": null, "plateforme": "1177", "type": "vaccination-center", "appointment_count": 0, "internal_id": null, "vaccine_type": null, "appointment_by_phone_only": true, "erreur": null, "last_scan_with_availabilities": null, "request_counts": null, "appointment_schedules": [], "gid": null}, {"departement": "24", "nom": "Umeå, Avion Shopping", "url": "https://www.vaccina.se/covidvaccin/vasterbotten/tidsbokning/#/service", "location": {"longitude": 20.2451951, "latitude": 63.8067113, "city": "Umeå", "cp": "90422"}, "metadata": {"address": "Marknadsgatan 3, 904 22 Umeå", "business_hours": null, "phone_number": ""}, "prochain_rdv": null, "plateforme": "Vaccina", "type": "vaccination-center", "appointment_count": 0, "internal_id": 30618, "vaccine_type": null, "appointment_by_phone_only": false, "erreur": null, "last_scan_with_availabilities": null, "request_counts": null, "appointment_schedules": [], "gid": null}, {"departement": "24", "nom": "Ursvikens hälsocentral", "url": "https://www.1177.se/hitta-vard/kontaktkort/Ursvikens-halsocentral-1/", "location": {"longitude": 21.188010806191546, "latitude": 64.69952266126344, "city": "Skellefteå", "cp": "00000"}, "metadata": {"address": "Skelleftehamnsvägen 206 A, Ursviken", "business_hours": null, "phone_number": "090-785 91 12"}, "prochain_rdv": null, "plateforme": "1177", "type": "vaccination-center", "appointment_count": 0, "internal_id": null, "vaccine_type": null, "appointment_by_phone_only": true, "erreur": null, "last_scan_with_availabilities": null, "request_counts": null, "appointment_schedules": [], "gid": null}, {"departement": "24", "nom": "Vilhelmina sjukstuga hälsocentral", "url": "https://www.1177.se/hitta-vard/kontaktkort/Vilhelmina-sjukstuga-halsocentral/", "location": {"longitude": 16.66232849898825, "latitude": 64.62508647124498, "city": "Vilhelmina", "cp": "00000"}, "metadata": {"address": "Volgsjövägen 37", "business_hours": null, "phone_number": "090-785 91 25"}, "prochain_rdv": null, "plateforme": "1177", "type": "vaccination-center", "appointment_count": 0, "internal_id": null, "vaccine_type": null, "appointment_by_phone_only": true, "erreur": null, "last_scan_with_availabilities": null, "request_counts": null, "appointment_schedules": [], "gid": null}, {"departement": "24", "nom": "Vindelns hälsocentral", "url": "https://www.1177.se/hitta-vard/kontaktkort/Vindelns-halsocentral/", "location": {"longitude": 19.713726275515782, "latitude": 64.20117474404158, "city": "Vindeln", "cp": "00000"}, "metadata": {"address": "Storvägen 56", "business_hours": null, "phone_number": "090-785 44 42"}, "prochain_rdv": null, "plateforme": "1177", "type": "vaccination-center", "appointment_count": 0, "internal_id": null, "vaccine_type": null, "appointment_by_phone_only": true, "erreur": null, "last_scan_with_availabilities": null, "request_counts": null, "appointment_schedules": [], "gid": null}, {"departement": "24", "nom": "Vännäs hälsocentral", "url": "https://www.1177.se/hitta-vard/kontaktkort/Vannas-halsocentral/", "location": {"longitude": 19.773237307657297, "latitude": 63.90955870161272, "city": "Vännäs", "cp": "00000"}, "metadata": {"address": "Umevägen 56", "business_hours": null, "phone_number": "090-785 44 50"}, "prochain_rdv": null, "plateforme": "1177", "type": "vaccination-center", "appointment_count": 0, "internal_id": null, "vaccine_type": null, "appointment_by_phone_only": true, "erreur": null, "last_scan_with_availabilities": null, "request_counts": null, "appointment_schedules": [], "gid": null}, {"departement": "24", "nom": "Ålidhems hälsocentral", "url": "https://www.1177.se/hitta-vard/kontaktkort/Alidhems-halsocentral/", "location": {"longitude": 20.316742449489357, "latitude": 63.81499142292883, "city": "Umeå", "cp": "00000"}, "metadata": {"address": "Tvistevägen 2", "business_hours": null, "phone_number": "090-785 44 58"}, "prochain_rdv": null, "plateforme": "1177", "type": "vaccination-center", "appointment_count": 0, "internal_id": null, "vaccine_type": null, "appointment_by_phone_only": true, "erreur": null, "last_scan_with_availabilities": null, "request_counts": null, "appointment_schedules": [], "gid": null}, {"departement": "24", "nom": "Åsele sjukstuga hälsocentral", "url": "https://www.1177.se/hitta-vard/kontaktkort/Asele-sjukstuga-halsocentral/", "location": {"longitude": 17.359149785111434, "latitude": 64.16094798300327, "city": "Åsele", "cp": "00000"}, "metadata": {"address": "Bryggaregatan 11 A", "business_hours": null, "phone_number": "090-785 91 76"}, "prochain_rdv": null, "plateforme": "1177", "type": "vaccination-center", "appointment_count": 0, "internal_id": null, "vaccine_type": null, "appointment_by_phone_only": true, "erreur": null, "last_scan_with_availabilities": null, "request_counts": null, "appointment_schedules": [], "gid": null}]}