{"version": 1, "last_updated": "2021-05-26 01:37:02.556886+02:00", "last_scrap": [], "centres_disponibles": [], "centres_indisponibles": [{"departement": "25", "nom": "Vaccinationsmottagningen Arjeplog", "url": "https://www.1177.se/hitta-vard/kontaktkort/Vaccinationsmottagningen-Arjeplog/", "location": {"longitude": 17.890838225373635, "latitude": 66.05002311982224, "city": "Arjeplog", "cp": "00000"}, "metadata": {"address": "Facklan, Dr Wallqvist väg 3B, Arjeplog", "business_hours": null, "phone_number": "010-452 63 03"}, "prochain_rdv": null, "plateforme": "1177", "type": "vaccination-center", "appointment_count": 0, "internal_id": null, "vaccine_type": null, "appointment_by_phone_only": true, "erreur": null, "last_scan_with_availabilities": null, "request_counts": null, "appointment_schedules": [], "gid": null}, {"departement": "25", "nom": "Vaccinationsmottagningen Arvidsjaur", "url": "https://www.1177.se/hitta-vard/kontaktkort/Vaccinationsmottagningen-Arvidsjaur/", "location": {"longitude": 19.172567784896266, "latitude": 65.59307299449553, "city": "Arvidsjaur", "cp": "00000"}, "metadata": {"address": "Medan, Storgatan 12, Arvidsjaur", "business_hours": null, "phone_number": "010-452 63 03"}, "prochain_rdv": null, "plateforme": "1177", "type": "vaccination-center", "appointment_count": 0, "internal_id": null, "vaccine_type": null, "appointment_by_phone_only": true, "erreur": null, "last_scan_with_availabilities": null, "request_counts": null, "appointment_schedules": [], "gid": null}, {"departement": "25", "nom": "Vaccinationsmottagningen Boden", "url": "https://www.1177.se/hitta-vard/kontaktkort/Vaccinationsmottagningen-Boden/", "location": {"longitude": 21.664154199662725, "latitude": 65.82314581180988, "city": "Boden", "cp": "00000"}, "metadata": {"address": "f.d. Vårdhögskolan, Hedenbrovägen 2C, Boden", "business_hours": null, "phone_number": "010-452 63 03"}, "prochain_rdv": null, "plateforme": "1177", "type": "vaccination-center", "appointment_count": 0, "internal_id": null, "vaccine_type": null, "appointment_by_phone_only": true, "erreur": null, "last_scan_with_availabilities": null, "request_counts": null, "appointment_schedules": [], "gid": null}, {"departement": "25", "nom": "Vaccinationsmottagningen Gällivare", "url": "https://www.1177.se/hitta-vard/kontaktkort/Vaccinationsmottagningen-Gallivare/", "location": {"longitude": 20.687146002957565, "latitude": 67.1310047562662, "city": "Gällivare", "cp": "00000"}, "metadata": {"address": "Centralförrådet, Källgatan 14, Gällivare sjukhus", "business_hours": null, "phone_number": "010-452 63 03"}, "prochain_rdv": null, "plateforme": "1177", "type": "vaccination-center", "appointment_count": 0, "internal_id": null, "vaccine_type": null, "appointment_by_phone_only": true, "erreur": null, "last_scan_with_availabilities": null, "request_counts": null, "appointment_schedules": [], "gid": null}, {"departement": "25", "nom": "Vaccinationsmottagningen Haparanda", "url": "https://www.1177.se/hitta-vard/kontaktkort/Vaccinationsmottagningen-Haparanda/", "location": {"longitude": 24.135106484478833, "latitude": 65.83822647482017, "city": "Haparanda", "cp": "00000"}, "metadata": {"address": "Haparanda hälsocentral, Lasarettsgatan 34, Haparanda", "business_hours": null, "phone_number": "010-452 63 03"}, "prochain_rdv": null, "plateforme": "1177", "type": "vaccination-center", "appointment_count": 0, "internal_id": null, "vaccine_type": null, "appointment_by_phone_only": true, "erreur": null, "last_scan_with_availabilities": null, "request_counts": null, "appointment_schedules": [], "gid": null}, {"departement": "25", "nom": "Vaccinationsmottagningen Jokkmokk", "url": "https://www.1177.se/hitta-vard/kontaktkort/Vaccinationsmottagningen-Jokkmokk/", "location": {"longitude": 19.843505362021933, "latitude": 66.60207137640295, "city": "Jokkmokk", "cp": "00000"}, "metadata": {"address": "Folkets hus, Föreningsgatan 8, Jokkmokk", "business_hours": null, "phone_number": "010-452 63 03"}, "prochain_rdv": null, "plateforme": "1177", "type": "vaccination-center", "appointment_count": 0, "internal_id": null, "vaccine_type": null, "appointment_by_phone_only": true, "erreur": null, "last_scan_with_availabilities": null, "request_counts": null, "appointment_schedules": [], "gid": null}, {"departement": "25", "nom": "Vaccinationsmottagningen Kalix", "url": "https://www.1177.se/hitta-vard/kontaktkort/Vaccinationsmottagningen-Kalix/", "location": {"longitude": 23.163297021538487, "latitude": 65.85021830548446, "city": "Kalix", "cp": "00000"}, "metadata": {"address": "Sportcity, Centrumvägen 74, Kalix", "business_hours": null, "phone_number": "010-452 63 03"}, "prochain_rdv": null, "plateforme": "1177", "type": "vaccination-center", "appointment_count": 0, "internal_id": null, "vaccine_type": null, "appointment_by_phone_only": true, "erreur": null, "last_scan_with_availabilities": null, "request_counts": null, "appointment_schedules": [], "gid": null}, {"departement": "25", "nom": "Vaccinationsmottagningen Kiruna", "url": "https://www.1177.se/hitta-vard/kontaktkort/Vaccinationsmottagningen-Kiruna/", "location": {"longitude": 20.245199994763585, "latitude": 67.84073539486273, "city": "Kiruna", "cp": "00000"}, "metadata": {"address": "Lombia ishall, Lombiavägen 4, Kiruna", "business_hours": null, "phone_number": "010-452 63 03"}, "prochain_rdv": null, "plateforme": "1177", "type": "vaccination-center", "appointment_count": 0, "internal_id": null, "vaccine_type": null, "appointment_by_phone_only": true, "erreur": null, "last_scan_with_availabilities": null, "request_counts": null, "appointment_schedules": [], "gid": null}, {"departement": "25", "nom": "Vaccinationsmottagningen Luleå", "url": "https://www.1177.se/hitta-vard/kontaktkort/Vaccinationsmottagningen-Lulea/", "location": {"longitude": 22.147326948244366, "latitude": 65.59758833918862, "city": "Luleå", "cp": "00000"}, "metadata": {"address": "Coop Arena, Midgårdsvägen 4, Luleå", "business_hours": null, "phone_number": "010-452 63 03"}, "prochain_rdv": null, "plateforme": "1177", "type": "vaccination-center", "appointment_count": 0, "internal_id": null, "vaccine_type": null, "appointment_by_phone_only": true, "erreur": null, "last_scan_with_availabilities": null, "request_counts": null, "appointment_schedules": [], "gid": null}, {"departement": "25", "nom": "Vaccinationsmottagningen Pajala", "url": "https://www.1177.se/hitta-vard/kontaktkort/Vaccinationsmottagningen-Pajala/", "location": {"longitude": 23.371196974791133, "latitude": 67.2089525288792, "city": "Pajala", "cp": "00000"}, "metadata": {"address": "Folkets hus, Fridhemsvägen 1A, Pajala", "business_hours": null, "phone_number": "010-452 63 03"}, "prochain_rdv": null, "plateforme": "1177", "type": "vaccination-center", "appointment_count": 0, "internal_id": null, "vaccine_type": null, "appointment_by_phone_only": true, "erreur": null, "last_scan_with_availabilities": null, "request_counts": null, "appointment_schedules": [], "gid": null}, {"departement": "25", "nom": "Vaccinationsmottagningen Piteå", "url": "https://www.1177.se/hitta-vard/kontaktkort/Vaccinationsmottagningen-Pitea/", "location": {"longitude": 21.491402322621358, "latitude": 65.32070553913984, "city": "Piteå", "cp": "00000"}, "metadata": {"address": "Piteå Energi Arena (Nolia området) Noliagatan 1, Piteå", "business_hours": null, "phone_number": "010-452 63 03"}, "prochain_rdv": null, "plateforme": "1177", "type": "vaccination-center", "appointment_count": 0, "internal_id": null, "vaccine_type": null, "appointment_by_phone_only": true, "erreur": null, "last_scan_with_availabilities": null, "request_counts": null, "appointment_schedules": [], "gid": null}, {"departement": "25", "nom": "Vaccinationsmottagningen Älvsbyn", "url": "https://www.1177.se/hitta-vard/kontaktkort/Vaccinationsmottagningen-Alvsbyn/", "location": {"longitude": 21.00320229860984, "latitude": 65.67431044981623, "city": "Älvsbyn", "cp": "00000"}, "metadata": {"address": "Forum Folkets hus, Medborgargatan 2, Älvsbyn", "business_hours": null, "phone_number": "010-452 63 03"}, "prochain_rdv": null, "plateforme": "1177", "type": "vaccination-center", "appointment_count": 0, "internal_id": null, "vaccine_type": null, "appointment_by_phone_only": true, "erreur": null, "last_scan_with_availabilities": null, "request_counts": null, "appointment_schedules": [], "gid": null}, {"departement": "25", "nom": "Vaccinationsmottagningen Överkalix", "url": "https://www.1177.se/hitta-vard/kontaktkort/Vaccinationsmottagningen-Overkalix/", "location": {"longitude": 22.848487102428123, "latitude": 66.3387568600528, "city": "Överkalix", "cp": "00000"}, "metadata": {"address": "Överkalix hälsocentral, Tallviksvägen 31, Överkalix", "business_hours": null, "phone_number": "010-452 63 03"}, "prochain_rdv": null, "plateforme": "1177", "type": "vaccination-center", "appointment_count": 0, "internal_id": null, "vaccine_type": null, "appointment_by_phone_only": true, "erreur": null, "last_scan_with_availabilities": null, "request_counts": null, "appointment_schedules": [], "gid": null}, {"departement": "25", "nom": "Vaccinationsmottagningen Övertorneå", "url": "https://www.1177.se/hitta-vard/kontaktkort/Vaccinationsmottagningen-Overtornea/", "location": {"longitude": 23.64828409745047, "latitude": 66.38308322218411, "city": "Övertorneå", "cp": "00000"}, "metadata": {"address": "Folkets hus, Industrivägen 3, Övertorneå", "business_hours": null, "phone_number": "010-452 63 03"}, "prochain_rdv": null, "plateforme": "1177", "type": "vaccination-center", "appointment_count": 0, "internal_id": null, "vaccine_type": null, "appointment_by_phone_only": true, "erreur": null, "last_scan_with_availabilities": null, "request_counts": null, "appointment_schedules": [], "gid": null}]}